eventID,samplingProtocol,samplingEffort,sampleSizeValue,sampleSizeUnit,eventDate,eventTime,startDayOfYear,country,countryCode,locality,locationID,decimalLatitude,decimalLongitude,geodeticDatum,coordinateUncertaintyInMeters,type,ownerInstitutionCode,eventRemarks
2011-AMHERST-1,Area Survey,Observer Time,81,Acre,2011-07-16,,197,United States of America,USA,Plymouth,AMHERST,43.4856261,-72.7042639,WGS94,10,Event,VCE,
2011-BAKER (BARTON)-1,Area Survey,Observer Time,51,Acre,2011-07-16,,197,United States of America,USA,Barton,BAKER (BARTON),44.746438,-72.2348255,WGS94,10,Event,VCE,nesting
2011-BALD HILL-1,Area Survey,Observer Time,108,Acre,2011-07-16,,197,United States of America,USA,Westmore,BALD HILL,44.7394947,-71.9778742,WGS94,10,Event,VCE,
2011-BEAN (SUTTON)-1,Area Survey,Observer Time,30,Acre,2011-07-15,,196,United States of America,USA,Sutton,BEAN (SUTTON),44.6983842,-72.0862101,WGS94,10,Event,VCE,Friday pm
2011-BEAVER (HOLLND)-1,Area Survey,Observer Time,40,Acre,2011-07-16,,197,United States of America,USA,Holland,BEAVER (HOLLND),45.0047684,-71.9398184,WGS94,10,Event,VCE,
2011-BEEBE (HUBDTN)-1,Area Survey,Observer Time,111,Acre,2011-07-16,,197,United States of America,USA,Hubbardton,BEEBE (HUBDTN),43.7342306,-73.1831677,WGS94,10,Event,VCE,
2011-BEEBE (SUNDLD)-1,Area Survey,Observer Time,13,Acre,2011-07-16,,197,United States of America,USA,Sunderland,BEEBE (SUNDLD),43.0523,-73.0320481,WGS94,10,Event,VCE,henry 3 pm
2011-BERLIN-1,Area Survey,Observer Time,293,Acre,2011-07-16,,197,United States of America,USA,Berlin,BERLIN,44.18,-72.58,WGS94,10,Event,VCE,
2011-BLAKE-1,Area Survey,Observer Time,8,Acre,2011-07-16,,197,United States of America,USA,Sheffield,BLAKE,43.15,-72.72,WGS94,10,Event,VCE,
2011-BLISS-1,Area Survey,Observer Time,46,Acre,2011-07-16,,197,United States of America,USA,Calais,BLISS,44.3525574,-72.5006635,WGS94,10,Event,VCE,
2011-BOMOSEEN-1,Area Survey,Observer Time,2360,Acre,2011-07-16,,197,United States of America,USA,Castleton,BOMOSEEN,43.6442324,-73.2131665,WGS94,10,Event,VCE,
2011-BOURN-1,Area Survey,Observer Time,48,Acre,2011-07-16,,197,United States of America,USA,Sunderland,BOURN,43.1061882,-73.0020474,WGS94,10,Event,VCE,3pm
2011-BRANCH-1,Area Survey,Observer Time,34,Acre,2011-07-16,,197,United States of America,USA,Sunderland,BRANCH,43.0809107,-73.0189922,WGS94,10,Event,VCE,
2011-WINONA-1,Area Survey,Observer Time,248,Acre,2011-07-16,,197,United States of America,USA,Bristol,WINONA,44.1731125,-73.0870642,WGS94,10,Event,VCE,
2011-BROWNINGTON-1,Area Survey,Observer Time,139,Acre,2011-07-16,,197,United States of America,USA,Brownington,BROWNINGTON,44.8786588,-72.1476007,WGS94,10,Event,VCE,
2011-BRUCE-1,Area Survey,Observer Time,27,Acre,2011-07-16,,197,United States of America,USA,Sutton,BRUCE,44.6403295,-72.187046,WGS94,10,Event,VCE,1 ad flew off 8am (to Tildy?); 2 eggs in nest
2011-BUCK-1,Area Survey,Observer Time,39,Acre,2011-07-16,,197,United States of America,USA,Woodbury,BUCK,44.462555,-72.3995513,WGS94,10,Event,VCE,1 ad flew time??
2011-BURR (SUDBRY)-1,Area Survey,Observer Time,85,Acre,2011-07-16,,197,United States of America,USA,Sudbury,BURR (SUDBRY),43.77,-73.18,WGS94,10,Event,VCE,
2011-CARMI-1,Area Survey,Observer Time,1401,Acre,2011-07-16,,197,United States of America,USA,Franklin,CARMI,44.9714333,-72.877911,WGS94,10,Event,VCE,
2011-CASPIAN-1,Area Survey,Observer Time,789,Acre,2011-07-16,,197,United States of America,USA,Greensboro,CASPIAN,44.58,-72.32,WGS94,10,Event,VCE,1 at 11 am Beth
2011-CENTER-1,Area Survey,Observer Time,79,Acre,2011-07-16,,197,United States of America,USA,Newark,CENTER,44.7144953,-71.9198175,WGS94,10,Event,VCE,
2011-CHANDLER (WHLOCK)-1,Area Survey,Observer Time,68,Acre,2011-07-16,,197,United States of America,USA,Wheelock,CHANDLER (WHLOCK),44.53,-72.1,WGS94,10,Event,VCE,
2011-CHITTENDEN-1,Area Survey,Observer Time,702,Acre,2011-07-16,,197,United States of America,USA,Chittenden,CHITTENDEN,43.73,-72.92,WGS94,10,Event,VCE,
2011-TILDYS-1,Area Survey,Observer Time,33,Acre,2011-07-16,,197,United States of America,USA,Glover,TILDYS,44.65,-72.2,WGS94,10,Event,VCE,1 ad 10 am might have flown in from Bruce so not counted.
2011-CLYDE-1,Area Survey,Observer Time,186,Acre,2011-07-16,,197,United States of America,USA,Derby,CLYDE,44.9353246,-72.1712124,WGS94,10,Event,VCE,
2011-COITS-1,Area Survey,Observer Time,40,Acre,2011-07-16,,197,United States of America,USA,Cabot,COITS,44.4472777,-72.3295486,WGS94,10,Event,VCE,
2011-COLCHESTER-1,Area Survey,Observer Time,186,Acre,2011-07-16,,197,United States of America,USA,Colchester,COLCHESTER,44.5550488,-73.1195741,WGS94,10,Event,VCE,
2011-COLES-1,Area Survey,Observer Time,125,Acre,2011-07-16,,197,United States of America,USA,Walden,COLES,44.52,-72.22,WGS94,10,Event,VCE,
2011-COLLINS-1,Area Survey,Observer Time,16,Acre,2011-07-16,,197,United States of America,USA,Hyde Park,COLLINS,44.6214402,-72.5042778,WGS94,10,Event,VCE,1 ad flew in 4 pm
2011-CRYSTAL (BARTON)-1,Area Survey,Observer Time,763,Acre,2011-07-16,,197,United States of America,USA,Barton,CRYSTAL (BARTON),44.7467161,-72.1762128,WGS94,10,Event,VCE,0 Connie Barton
2011-CURTIS-1,Area Survey,Observer Time,72,Acre,2011-07-16,,197,United States of America,USA,Calais,CURTIS,44.38,-72.5,WGS94,10,Event,VCE,Peg Chaffee???? Contact
2011-DANIELS-W-1,Area Survey,Observer Time,20,Acre,2011-07-16,,197,United States of America,USA,Glover,DANIELS-W,44.68,-72.28,WGS94,10,Event,VCE,
2011-DANIELS-1,Area Survey,Observer Time,66,Acre,2011-07-16,,197,United States of America,USA,Glover,DANIELS,44.6767173,-72.2626038,WGS94,10,Event,VCE,
2011-DERBY-1,Area Survey,Observer Time,207,Acre,2011-07-16,,197,United States of America,USA,Derby,DERBY,44.9542134,-72.1162109,WGS94,10,Event,VCE,
2011-VALLEY-1,Area Survey,Observer Time,88,Acre,2011-07-16,,197,United States of America,USA,Woodbury,VALLEY,44.447,-72.441,WGS94,10,Event,VCE,
2011-DUCK (CRAFBY)-1,Area Survey,Observer Time,9,Acre,2011-07-16,,197,United States of America,USA,Craftsbury,DUCK (CRAFBY),44.6733838,-72.3651069,WGS94,10,Event,VCE,
2011-DUNMORE-1,Area Survey,Observer Time,985,Acre,2011-07-16,,197,United States of America,USA,Salisbury,DUNMORE,43.9020068,-73.0753915,WGS94,10,Event,VCE,
2011-EAST LONG-1,Area Survey,Observer Time,188,Acre,2011-07-16,,197,United States of America,USA,Woodbury,EAST LONG,44.45,-72.35,WGS94,10,Event,VCE,
2011-ECHO (CHARTN)-1,Area Survey,Observer Time,550,Acre,2011-07-16,,197,United States of America,USA,Charleston,ECHO (CHARTN),44.8603262,-71.994819,WGS94,10,Event,VCE,lost pair?
2011-ECHO (PLYMTH)-1,Area Survey,Observer Time,104,Acre,2011-07-16,,197,United States of America,USA,Plymouth,ECHO (PLYMTH),43.4734041,-72.6998192,WGS94,10,Event,VCE,
2011-EDEN-1,Area Survey,Observer Time,194,Acre,2011-07-16,,197,United States of America,USA,Eden,EDEN,44.7225493,-72.5017778,WGS94,10,Event,VCE,"3rd loon flying 9:35, 2 ad obs 8:50"
2011-ELMORE-1,Area Survey,Observer Time,219,Acre,2011-07-16,,197,United States of America,USA,Elmore,ELMORE,44.5347752,-72.5253897,WGS94,10,Event,VCE,
2011-EMERALD-1,Area Survey,Observer Time,28,Acre,2011-07-16,,197,United States of America,USA,Dorset,EMERALD,43.2753523,-73.0064924,WGS94,10,Event,VCE,no loons obs by park ranger
2011-EWELL-1,Area Survey,Observer Time,51,Acre,2011-07-16,,197,United States of America,USA,Peacham,EWELL,44.37,-72.17,WGS94,10,Event,VCE,Jim Wilson obs 3 ad time? Roosa's retired? Or 2012
2011-FAIRFIELD-1,Area Survey,Observer Time,446,Acre,2011-07-16,,197,United States of America,USA,Fairfield,FAIRFIELD,44.85,-72.98,WGS94,10,Event,VCE,40748
2011-FAIRLEE-1,Area Survey,Observer Time,457,Acre,2011-07-16,,197,United States of America,USA,Fairlee,FAIRLEE,43.88,-72.23,WGS94,10,Event,VCE,heard another one; not there on return trip
2011-FERN-1,Area Survey,Observer Time,69,Acre,2011-07-16,,197,United States of America,USA,Leicester,FERN,43.8656187,-73.0698352,WGS94,10,Event,VCE,
2011-FLAGG-1,Area Survey,Observer Time,111,Acre,2011-07-16,,197,United States of America,USA,Wheelock,FLAGG,44.5653311,-72.2073241,WGS94,10,Event,VCE,
2011-FOREST (AVERLL)-1,Area Survey,Observer Time,62,Acre,2011-07-16,,197,United States of America,USA,Averill,FOREST (AVERLL),44.9847686,-71.6814803,WGS94,10,Event,VCE,
2011-FOSTERS-1,Area Survey,Observer Time,61,Acre,2011-07-16,,197,United States of America,USA,Peacham,FOSTERS,44.3297812,-72.20982,WGS94,10,Event,VCE,
2011-GALE MEADOWS-1,Area Survey,Observer Time,195,Acre,2011-07-16,,197,United States of America,USA,Londonderry,GALE MEADOWS,43.17,-72.87,WGS94,10,Event,VCE,
2011-GREAT AVERILL-1,Area Survey,Observer Time,828,Acre,2011-07-16,,197,United States of America,USA,Averill,GREAT AVERILL,44.98,-71.7,WGS94,10,Event,VCE,Possibly 2 double counted (tally as 5 not 7); no chick obs.w/ inlet pair
2011-GREAT HOSMER-1,Area Survey,Observer Time,140,Acre,2011-07-16,,197,United States of America,USA,Craftsbury,GREAT HOSMER,44.6947722,-72.3606624,WGS94,10,Event,VCE,
2011-GREEN RIVER-1,Area Survey,Observer Time,554,Acre,2011-07-16,,197,United States of America,USA,Hyde Park,GREEN RIVER,44.629268,-72.515443,WGS94,10,Event,VCE,likely missed 1 chick
2011-GREENWOOD-1,Area Survey,Observer Time,96,Acre,2011-07-16,,197,United States of America,USA,Woodbury,GREENWOOD,44.4586661,-72.4253853,WGS94,10,Event,VCE,
2011-GROTON-1,Area Survey,Observer Time,422,Acre,2011-07-16,,197,United States of America,USA,Groton,GROTON,44.2667271,-72.2662089,WGS94,10,Event,VCE,
2011-GROUT-1,Area Survey,Observer Time,84,Acre,2011-07-16,,197,United States of America,USA,Stratton,GROUT,43.0445226,-72.9456567,WGS94,10,Event,VCE,1 ad 5:50 pm henry; 1 ad 7:15 am vycc
2011-HALLS-1,Area Survey,Observer Time,85,Acre,2011-07-16,,197,United States of America,USA,Newbury,HALLS,44.085898,-72.1231473,WGS94,10,Event,VCE,
2011-HARDWICK-1,Area Survey,Observer Time,145,Acre,2011-07-16,,197,United States of America,USA,Hardwick,HARDWICK,44.52,-72.37,WGS94,10,Event,VCE,
2011-HARDWOOD-1,Area Survey,Observer Time,44,Acre,2011-07-16,,197,United States of America,USA,Elmore,HARDWOOD,44.4678324,-72.4995546,WGS94,10,Event,VCE,
2011-HARRIMAN (WHITHM)-1,Area Survey,Observer Time,2040,Acre,2011-07-16,,197,United States of America,USA,Whitingham,HARRIMAN (WHITHM),42.83,-72.88,WGS94,10,Event,VCE,
2011-HARTWELL-1,Area Survey,Observer Time,16,Acre,2011-07-16,,197,United States of America,USA,Albany,HARTWELL,44.7044943,-72.293716,WGS94,10,Event,VCE,2nd hand report
2011-HARVEYS-1,Area Survey,Observer Time,351,Acre,2011-07-16,,197,United States of America,USA,Barnet,HARVEYS,44.3,-72.13,WGS94,10,Event,VCE,513 shoreline road
2011-HOLLAND-1,Area Survey,Observer Time,325,Acre,2011-07-16,,197,United States of America,USA,Holland,HOLLAND,44.9867132,-71.9281516,WGS94,10,Event,VCE,
2011-HORTONIA-1,Area Survey,Observer Time,479,Acre,2011-07-16,,197,United States of America,USA,Hubbardton,HORTONIA,43.7500632,-73.2078906,WGS94,10,Event,VCE,
2011-INDIAN BROOK (ESSEX)-1,Area Survey,Observer Time,50,Acre,2011-07-16,,197,United States of America,USA,Essex,INDIAN BROOK (ESSEX),44.53,-73.1,WGS94,10,Event,VCE,
2011-INMAN-1,Area Survey,Observer Time,85,Acre,2011-07-16,,197,United States of America,USA,Fair Haven,INMAN,43.65,-73.27,WGS94,10,Event,VCE,
2011-ISLAND-1,Area Survey,Observer Time,626,Acre,2011-07-16,,197,United States of America,USA,Brighton,ISLAND,44.8050491,-71.8706504,WGS94,10,Event,VCE,
2011-JOBS-1,Area Survey,Observer Time,39,Acre,2011-07-16,,197,United States of America,USA,Westmore,JOBS,44.7628276,-71.9537072,WGS94,10,Event,VCE,
2011-JOES (DANVLL)-1,Area Survey,Observer Time,396,Acre,2011-07-16,,197,United States of America,USA,Danville,JOES (DANVLL),44.4083904,-72.1945436,WGS94,10,Event,VCE,
2011-KEISER-1,Area Survey,Observer Time,33,Acre,2011-07-16,,197,United States of America,USA,Danville,KEISER,44.3864467,-72.1706537,WGS94,10,Event,VCE,
2011-KENT-1,Area Survey,Observer Time,99,Acre,2011-07-16,,197,United States of America,USA,Killington,KENT,43.68,-72.8,WGS94,10,Event,VCE,
2011-KETTLE-1,Area Survey,Observer Time,109,Acre,2011-07-16,,197,United States of America,USA,Peacham,KETTLE,44.2947817,-72.3181558,WGS94,10,Event,VCE,
2011-KNAPP BROOK #1-1,Area Survey,Observer Time,25,Acre,2011-07-16,,197,United States of America,USA,Cavendish,KNAPP BROOK #1,43.447016,-72.5662041,WGS94,10,Event,VCE,1 ad flyover
2011-KNAPP BROOK #2-1,Area Survey,Observer Time,35,Acre,2011-07-16,,197,United States of America,USA,Cavendish,KNAPP BROOK #2,43.45,-72.57,WGS94,10,Event,VCE,
2011-LEWIS-1,Area Survey,Observer Time,68,Acre,2011-07-16,,197,United States of America,USA,Lewis,LEWIS,44.8833812,-71.7806495,WGS94,10,Event,VCE,
2011-LITTLE AVERILL-1,Area Survey,Observer Time,467,Acre,2011-07-16,,197,United States of America,USA,Averill,LITTLE AVERILL,44.9556024,-71.7162039,WGS94,10,Event,VCE,
2011-LITTLE ELMORE-1,Area Survey,Observer Time,24,Acre,2011-07-16,,197,United States of America,USA,Elmore,LITTLE ELMORE,44.4978315,-72.5317787,WGS94,10,Event,VCE,
2011-LITTLE HOSMER-1,Area Survey,Observer Time,180,Acre,2011-07-16,,197,United States of America,USA,Craftsbury,LITTLE HOSMER,44.68,-72.38,WGS94,10,Event,VCE,1 ad flew over at 9:30 am
2011-SALEM-1,Area Survey,Observer Time,50,Acre,2011-07-16,,197,United States of America,USA,Derby,SALEM,44.9292138,-72.1037106,WGS94,10,Event,VCE,
2011-LONG (EDEN)-1,Area Survey,Observer Time,97,Acre,2011-07-16,,197,United States of America,USA,Eden,LONG (EDEN),44.77,-72.6,WGS94,10,Event,VCE,
2011-LONG (GRNSBO)-1,Area Survey,Observer Time,100,Acre,2011-07-16,,197,United States of America,USA,Greensboro,LONG (GRNSBO),44.6256073,-72.263437,WGS94,10,Event,VCE,
2011-LONG (SHEFLD)-1,Area Survey,Observer Time,38,Acre,2011-07-16,,197,United States of America,USA,Sheffield,LONG (SHEFLD),44.6767178,-72.1437116,WGS94,10,Event,VCE,1 ad flew over
2011-LONG (WESTMR)-1,Area Survey,Observer Time,90,Acre,2011-07-16,,197,United States of America,USA,Westmore,LONG (WESTMR),44.7506056,-72.0178751,WGS94,10,Event,VCE,
2011-LOWELL-1,Area Survey,Observer Time,57,Acre,2011-07-16,,197,United States of America,USA,Londonderry,LOWELL,43.22,-72.77,WGS94,10,Event,VCE,
2011-LOWER-1,Area Survey,Observer Time,57,Acre,2011-07-16,,197,United States of America,USA,Hinesburg,LOWER,44.35,-73.08,WGS94,10,Event,VCE,
2011-LOWER SYMES-1,Area Survey,Observer Time,77,Acre,2011-07-16,,197,United States of America,USA,Ryegate,LOWER SYMES,44.25,-72.1,WGS94,10,Event,VCE,
2011-LYFORD-1,Area Survey,Observer Time,33,Acre,2011-07-16,,197,United States of America,USA,Walden,LYFORD,44.4456114,-72.2467681,WGS94,10,Event,VCE,
2011-MAIDSTONE-1,Area Survey,Observer Time,745,Acre,2011-07-16,,197,United States of America,USA,Maidstone,MAIDSTONE,44.6486637,-71.6470329,WGS94,10,Event,VCE,
2011-MARL-1,Area Survey,Observer Time,10,Acre,2011-07-16,,197,United States of America,USA,Sutton,MARL,44.7003288,-72.0600983,WGS94,10,Event,VCE,
2011-TURTLEHEAD-1,Area Survey,Observer Time,69,Acre,2011-07-16,,197,United States of America,USA,Marshfield,TURTLEHEAD,44.3258919,-72.330657,WGS94,10,Event,VCE,
2011-MARTINS-1,Area Survey,Observer Time,82,Acre,2011-07-16,,197,United States of America,USA,Peacham,MARTINS,44.3,-72.22,WGS94,10,Event,VCE,1 flew 8:30 ese
2011-MAY-1,Area Survey,Observer Time,116,Acre,2011-07-16,,197,United States of America,USA,Barton,MAY,44.7417164,-72.1228779,WGS94,10,Event,VCE,
2011-MCCONNELL-1,Area Survey,Observer Time,87,Acre,2011-07-16,,197,United States of America,USA,Brighton,MCCONNELL,44.8189378,-71.8039827,WGS94,10,Event,VCE,
2011-MEMPHREMAGOG-1,Area Survey,Observer Time,5966,Acre,2011-07-16,,197,United States of America,USA,Derby,MEMPHREMAGOG,44.9853239,-72.2151023,WGS94,10,Event,VCE,possibly 4 loons;  2 flew east at 8:45
2011-METCALF-1,Area Survey,Observer Time,81,Acre,2011-07-16,,197,United States of America,USA,Fletcher,METCALF,44.7283824,-72.8840236,WGS94,10,Event,VCE,4 ad s and w of islands
2011-MILES-1,Area Survey,Observer Time,215,Acre,2011-07-16,,197,United States of America,USA,Concord,MILES,44.45,-71.82,WGS94,10,Event,VCE,
2011-MILL (WINDSR)-1,Area Survey,Observer Time,77,Acre,2011-07-16,,197,United States of America,USA,Windsor,MILL (WINDSR),43.4711828,-72.3967575,WGS94,10,Event,VCE,
2011-MILLER (STRFRD)-1,Area Survey,Observer Time,64,Acre,2011-07-16,,197,United States of America,USA,Strafford,MILLER (STRFRD),43.9,-72.3,WGS94,10,Event,VCE,
2011-MOLLYS-1,Area Survey,Observer Time,38,Acre,2011-07-16,,197,United States of America,USA,Cabot,MOLLYS,44.3939461,-72.2359332,WGS94,10,Event,VCE,
2011-MOLLYS FALLS-1,Area Survey,Observer Time,397,Acre,2011-07-16,,197,United States of America,USA,Marshfield,MOLLYS FALLS,44.35,-72.28,WGS94,10,Event,VCE,vol documentation
2011-MOORE-1,Area Survey,Observer Time,1235,Acre,2011-07-16,,197,United States of America,USA,Waterford,MOORE,44.33,-71.87,WGS94,10,Event,VCE,
2011-MOREY-1,Area Survey,Observer Time,547,Acre,2011-07-16,,197,United States of America,USA,Fairlee,MOREY,43.9247901,-72.1498123,WGS94,10,Event,VCE,
2011-MUD (HYDEPK)-1,Area Survey,Observer Time,14,Acre,2011-07-16,,197,United States of America,USA,Hyde Park,MUD (HYDEPK),44.605885,-72.5034444,WGS94,10,Event,VCE,
2011-MUD (LEICTR)-1,Area Survey,Observer Time,35,Acre,2011-07-16,,197,United States of America,USA,Leicester,MUD (LEICTR),43.88,-73.08,WGS94,10,Event,VCE,
2011-MUD (PEACHM)-1,Area Survey,Observer Time,34,Acre,2011-07-16,,197,United States of America,USA,Peacham,MUD (PEACHM),44.3072818,-72.2125974,WGS94,10,Event,VCE,
2011-NEAL-1,Area Survey,Observer Time,186,Acre,2011-07-16,,197,United States of America,USA,Lunenburg,NEAL,44.4897795,-71.6920327,WGS94,10,Event,VCE,
2011-NICHOLS-1,Area Survey,Observer Time,171,Acre,2011-07-16,,197,United States of America,USA,Woodbury,NICHOLS,44.45,-72.35,WGS94,10,Event,VCE,
2011-NINEVAH-1,Area Survey,Observer Time,171,Acre,2011-07-16,,197,United States of America,USA,Mt. Holly,NINEVAH,43.47,-72.75,WGS94,10,Event,VCE,
2011-MIRROR-1,Area Survey,Observer Time,85,Acre,2011-07-16,,197,United States of America,USA,Calais,MIRROR,44.4,-72.45,WGS94,10,Event,VCE,chick stashed; killed next day
2011-NORTH MONTPELIER-1,Area Survey,Observer Time,72,Acre,2011-07-16,,197,United States of America,USA,East Montpelier,NORTH MONTPELIER,44.32,-72.45,WGS94,10,Event,VCE,
2011-NORTON-1,Area Survey,Observer Time,583,Acre,2011-07-16,,197,United States of America,USA,Norton,NORTON,44.93,-71.87,WGS94,10,Event,VCE,
2011-NOTCH-1,Area Survey,Observer Time,22,Acre,2011-07-16,,197,United States of America,USA,Ferdinand,NOTCH,44.7406056,-71.7173137,WGS94,10,Event,VCE,
2011-NOYES-1,Area Survey,Observer Time,39,Acre,2011-07-16,,197,United States of America,USA,Groton,NOYES,44.23,-72.32,WGS94,10,Event,VCE,
2011-OSMORE-1,Area Survey,Observer Time,48,Acre,2011-07-16,,197,United States of America,USA,Groton,OSMORE,44.3083926,-72.2781547,WGS94,10,Event,VCE,
2011-PARKER-1,Area Survey,Observer Time,250,Acre,2011-07-16,,197,United States of America,USA,Glover,PARKER,44.7194941,-72.2328808,WGS94,10,Event,VCE,
2011-PEACHAM-1,Area Survey,Observer Time,340,Acre,2011-07-16,,197,United States of America,USA,Peacham,PEACHAM,44.33,-72.27,WGS94,10,Event,VCE,also 2 ad joan hudson
2011-PENSIONER-1,Area Survey,Observer Time,173,Acre,2011-07-16,,197,United States of America,USA,Charleston,PENSIONER,44.8736591,-72.0573206,WGS94,10,Event,VCE,possibly 13 ad
2011-PIGEON-1,Area Survey,Observer Time,69,Acre,2011-07-16,,197,United States of America,USA,Groton,PIGEON,44.245894,-72.3284329,WGS94,10,Event,VCE,check with Jean roberts
2011-RAPONDA-1,Area Survey,Observer Time,121,Acre,2011-07-16,,197,United States of America,USA,Wilmington,RAPONDA,42.8750812,-72.8175965,WGS94,10,Event,VCE,
2011-RESCUE-1,Area Survey,Observer Time,180,Acre,2011-07-16,,197,United States of America,USA,Ludlow,RESCUE,43.45,-72.7,WGS94,10,Event,VCE,
2011-RICKER-1,Area Survey,Observer Time,95,Acre,2011-07-16,,197,United States of America,USA,Groton,RICKER,44.2470054,-72.244541,WGS94,10,Event,VCE,1 ad Friday
2011-SALEM-1,Area Survey,Observer Time,764,Acre,2011-07-16,,197,United States of America,USA,Derby,SALEM,44.9292138,-72.1037106,WGS94,10,Event,VCE,
2011-SEARSBURG-1,Area Survey,Observer Time,25,Acre,2011-07-16,,197,United States of America,USA,Searsburg,SEARSBURG,42.92,-72.93,WGS94,10,Event,VCE,
2011-SEYMOUR-1,Area Survey,Observer Time,1769,Acre,2011-07-16,,197,United States of America,USA,Morgan,SEYMOUR,44.8969923,-71.9817632,WGS94,10,Event,VCE,
2011-SHADOW (CONCRD)-1,Area Survey,Observer Time,128,Acre,2011-07-16,,197,United States of America,USA,Concord,SHADOW (CONCRD),44.4003367,-71.8734249,WGS94,10,Event,VCE,Coordinate with Charles Woods 
2011-SHADOW (GLOVER)-1,Area Survey,Observer Time,210,Acre,2011-07-16,,197,United States of America,USA,Glover,SHADOW (GLOVER),44.668103,-72.226571,WGS94,10,Event,VCE,
2011-SILVER (BARNRD)-1,Area Survey,Observer Time,84,Acre,2011-07-16,,197,United States of America,USA,Barnard,SILVER (BARNRD),43.7297902,-72.6106541,WGS94,10,Event,VCE,
2011-SILVER (LEICTR)-1,Area Survey,Observer Time,101,Acre,2011-07-16,,197,United States of America,USA,Leicester,SILVER (LEICTR),43.88,-73.05,WGS94,10,Event,VCE,
2011-SODOM-1,Area Survey,Observer Time,21,Acre,2011-07-16,,197,United States of America,USA,Calais,SODOM,44.3256137,-72.4998296,WGS94,10,Event,VCE,
2011-SOMERSET-1,Area Survey,Observer Time,1568,Acre,2011-07-16,,197,United States of America,USA,Somerset,SOMERSET,43.009708,-72.952621,WGS94,10,Event,VCE,
2011-SOUTH (EDEN)-1,Area Survey,Observer Time,103,Acre,2011-07-16,,197,United States of America,USA,Eden,SOUTH (EDEN),44.68,-72.53,WGS94,10,Event,VCE,
2011-SOUTH BAY-1,Area Survey,Observer Time,470,Acre,2011-07-16,,197,United States of America,USA,Newport City,SOUTH BAY,44.93,-72.2,WGS94,10,Event,VCE,
2011-SPECTACLE-1,Area Survey,Observer Time,103,Acre,2011-07-16,,197,United States of America,USA,Brighton,SPECTACLE,44.8006048,-71.8503722,WGS94,10,Event,VCE,
2011-SPRING (SHRWBY)-1,Area Survey,Observer Time,66,Acre,2011-07-16,,197,United States of America,USA,Shrewsbury,SPRING (SHRWBY),43.4959033,-72.918992,WGS94,10,Event,VCE,
2011-ST. CATHERINE-1,Area Survey,Observer Time,883,Acre,2011-07-16,,197,United States of America,USA,Wells,ST. CATHERINE,43.47,-73.22,WGS94,10,Event,VCE,
2011-SUGAR HILL-1,Area Survey,Observer Time,63,Acre,2011-07-16,,197,United States of America,USA,Goshen,SUGAR HILL,43.92,-73,WGS94,10,Event,VCE,
2011-SUNSET (MARLBR)-1,Area Survey,Observer Time,96,Acre,2011-07-16,,197,United States of America,USA,Marlboro,SUNSET (MARLBR),42.92,-72.68,WGS94,10,Event,VCE,
2011-THURMAN W. DIX-1,Area Survey,Observer Time,123,Acre,2011-07-16,,197,United States of America,USA,Orange,THURMAN W. DIX,44.18,-72.42,WGS94,10,Event,VCE,
2011-TICKLENAKED-1,Area Survey,Observer Time,54,Acre,2011-07-16,,197,United States of America,USA,Ryegate,TICKLENAKED,44.1892294,-72.0987041,WGS94,10,Event,VCE,possibly 3 ad only
2011-TOAD (CHARTN)-1,Area Survey,Observer Time,22,Acre,2011-07-16,,197,United States of America,USA,Charleston,TOAD (CHARTN),44.8489373,-72.0475981,WGS94,10,Event,VCE,
2011-TURTLE-1,Area Survey,Observer Time,27,Acre,2011-07-16,,197,United States of America,USA,Holland,TURTLE,44.9933797,-71.9198182,WGS94,10,Event,VCE,
2011-WALLACE-1,Area Survey,Observer Time,532,Acre,2011-07-16,,197,United States of America,USA,Canaan,WALLACE,45.0119905,-71.6256445,WGS94,10,Event,VCE,
2011-WALLINGFORD-1,Area Survey,Observer Time,87,Acre,2011-07-16,,197,United States of America,USA,Wallingford,WALLINGFORD,43.4145161,-72.9095466,WGS94,10,Event,VCE,
2011-TUTTLE (HARDWK)-1,Area Survey,Observer Time,21,Acre,2011-07-16,,197,United States of America,USA,Hardwick,TUTTLE (HARDWK),44.5581086,-72.310105,WGS94,10,Event,VCE,
2011-WARDEN-1,Area Survey,Observer Time,46,Acre,2011-07-16,,197,United States of America,USA,Barnet,WARDEN,44.3300597,-72.0781505,WGS94,10,Event,VCE,
2011-WATERBURY-1,Area Survey,Observer Time,839,Acre,2011-07-16,,197,United States of America,USA,Waterbury,WATERBURY,44.38,-72.77,WGS94,10,Event,VCE,
2011-WEST MOUNTAIN-1,Area Survey,Observer Time,60,Acre,2011-07-16,,197,United States of America,USA,Maidstone,WEST MOUNTAIN,44.6892181,-71.6620338,WGS94,10,Event,VCE,
2011-WHEELER (BRUNWK)-1,Area Survey,Observer Time,66,Acre,2011-07-16,,197,United States of America,USA,Brunswick,WHEELER (BRUNWK),44.708384,-71.6395333,WGS94,10,Event,VCE,
2011-WILLOUGHBY-1,Area Survey,Observer Time,1653,Acre,2011-07-16,,197,United States of America,USA,Westmore,WILLOUGHBY,44.7519942,-72.0628763,WGS94,10,Event,VCE,
2011-WOLCOTT-1,Area Survey,Observer Time,74,Acre,2011-07-16,,197,United States of America,USA,Wolcott,WOLCOTT,44.56532569,-72.42045722,WGS94,10,Event,VCE,
2011-WOODBURY-1,Area Survey,Observer Time,142,Acre,2011-07-16,,197,United States of America,USA,Woodbury,WOODBURY,44.43,-72.42,WGS94,10,Event,VCE,
2011-WOODWARD-1,Area Survey,Observer Time,106,Acre,2011-07-15,,196,United States of America,USA,Plymouth,WOODWARD,43.56577923,-72.75853066,WGS94,10,Event,VCE,Friday obs.
2011-WRIGHTSVILLE-1,Area Survey,Observer Time,190,Acre,2011-07-16,,197,United States of America,USA,East Montpelier,WRIGHTSVILLE,44.32345335,-72.57340942,WGS94,10,Event,VCE,
2011-ZACK WOODS-1,Area Survey,Observer Time,23,Acre,2011-07-16,,197,United States of America,USA,Hyde Park,ZACK WOODS,44.6106072,-72.5012221,WGS94,10,Event,VCE,
2012-BALD HILL-1,Area Survey,Observer Time,108,Acre,2012-07-21,,203,United States of America,USA,Westmore,BALD HILL,44.7394947,-71.9778742,WGS94,10,Event,VCE,
2012-BALL MOUNTAIN-1,Area Survey,Observer Time,85,Acre,2012-07-20,,202,United States of America,USA,Jamaica,BALL MOUNTAIN,43.13,-72.78,WGS94,10,Event,VCE,7/20 c davis
2012-BEAN (SUTTON)-1,Area Survey,Observer Time,30,Acre,2012-07-21,,203,United States of America,USA,Sutton,BEAN (SUTTON),44.6983842,-72.0862101,WGS94,10,Event,VCE,
2012-BEAVER (HOLLND)-1,Area Survey,Observer Time,40,Acre,2012-07-21,,203,United States of America,USA,Holland,BEAVER (HOLLND),45.0047684,-71.9398184,WGS94,10,Event,VCE,
2012-BEEBE (HUBDTN)-1,Area Survey,Observer Time,111,Acre,2012-07-21,,203,United States of America,USA,Hubbardton,BEEBE (HUBDTN),43.7342306,-73.1831677,WGS94,10,Event,VCE,
2012-BEEBE (SUNDLD)-1,Area Survey,Observer Time,13,Acre,2012-07-21,,203,United States of America,USA,Sunderland,BEEBE (SUNDLD),43.0523,-73.0320481,WGS94,10,Event,VCE,henry 3:30 pm
2012-BERLIN-1,Area Survey,Observer Time,293,Acre,2012-07-21,,203,United States of America,USA,Berlin,BERLIN,44.18,-72.58,WGS94,10,Event,VCE,
2012-BLISS-1,Area Survey,Observer Time,46,Acre,2012-07-21,,203,United States of America,USA,Calais,BLISS,44.3525574,-72.5006635,WGS94,10,Event,VCE,
2012-BOMOSEEN-1,Area Survey,Observer Time,2360,Acre,2012-07-21,,203,United States of America,USA,Castleton,BOMOSEEN,43.6442324,-73.2131665,WGS94,10,Event,VCE,roy pilcher
2012-BOURN-1,Area Survey,Observer Time,48,Acre,2012-07-21,,203,United States of America,USA,Sunderland,BOURN,43.1061882,-73.0020474,WGS94,10,Event,VCE,henry 6:30 pm
2012-BRANCH-1,Area Survey,Observer Time,34,Acre,2012-07-21,,203,United States of America,USA,Sunderland,BRANCH,43.0809107,-73.0189922,WGS94,10,Event,VCE,henry 4:30 pm
2012-BROWNINGTON-1,Area Survey,Observer Time,139,Acre,2012-07-21,,203,United States of America,USA,Brownington,BROWNINGTON,44.8786588,-72.1476007,WGS94,10,Event,VCE,
2012-BRUCE-1,Area Survey,Observer Time,27,Acre,2012-07-21,,203,United States of America,USA,Sutton,BRUCE,44.6403295,-72.187046,WGS94,10,Event,VCE,nest; 1 flew over 
2012-BUCK-1,Area Survey,Observer Time,39,Acre,2012-07-21,,203,United States of America,USA,Woodbury,BUCK,44.462555,-72.3995513,WGS94,10,Event,VCE,1 flew in 9 am
2012-CARMI-1,Area Survey,Observer Time,1401,Acre,2012-07-21,,203,United States of America,USA,Franklin,CARMI,44.9714333,-72.877911,WGS94,10,Event,VCE,
2012-CASPIAN-1,Area Survey,Observer Time,789,Acre,2012-07-21,,203,United States of America,USA,Greensboro,CASPIAN,44.58,-72.32,WGS94,10,Event,VCE,
2012-CENTER-1,Area Survey,Observer Time,79,Acre,2012-07-21,,203,United States of America,USA,Newark,CENTER,44.7144953,-71.9198175,WGS94,10,Event,VCE,Marshalls
2012-CHANDLER (WHLOCK)-1,Area Survey,Observer Time,68,Acre,2012-07-21,,203,United States of America,USA,Wheelock,CHANDLER (WHLOCK),44.53,-72.1,WGS94,10,Event,VCE,
2012-CHITTENDEN-1,Area Survey,Observer Time,702,Acre,2012-07-21,,203,United States of America,USA,Chittenden,CHITTENDEN,43.73,-72.92,WGS94,10,Event,VCE,
2012-TILDYS-1,Area Survey,Observer Time,33,Acre,2012-07-21,,203,United States of America,USA,Glover,TILDYS,44.65,-72.2,WGS94,10,Event,VCE,
2012-CLYDE-1,Area Survey,Observer Time,186,Acre,2012-07-21,,203,United States of America,USA,Derby,CLYDE,44.9353246,-72.1712124,WGS94,10,Event,VCE,
2012-COITS-1,Area Survey,Observer Time,40,Acre,2012-07-21,,203,United States of America,USA,Cabot,COITS,44.4472777,-72.3295486,WGS94,10,Event,VCE,
2012-COLBY-1,Area Survey,Observer Time,20,Acre,2012-07-22,,204,United States of America,USA,Plymouth,COLBY,43.47,-72.67,WGS94,10,Event,VCE,7/22 johnny
2012-COLCHESTER-1,Area Survey,Observer Time,186,Acre,2012-07-21,,203,United States of America,USA,Colchester,COLCHESTER,44.5550488,-73.1195741,WGS94,10,Event,VCE,
2012-COLES-1,Area Survey,Observer Time,125,Acre,2012-07-21,,203,United States of America,USA,Walden,COLES,44.52,-72.22,WGS94,10,Event,VCE,
2012-COLLINS-1,Area Survey,Observer Time,16,Acre,2012-07-21,,203,United States of America,USA,Hyde Park,COLLINS,44.6214402,-72.5042778,WGS94,10,Event,VCE,
2012-COMERFORD-1,Area Survey,Observer Time,777,Acre,2012-07-21,,203,United States of America,USA,Waterford,COMERFORD,44.33,-72.02,WGS94,10,Event,VCE,Liz
2012-CRANBERRY MEADOW-1,Area Survey,Observer Time,28,Acre,2012-07-21,,203,United States of America,USA,Woodbury,CRANBERRY MEADOW,44.4208892,-72.4573301,WGS94,10,Event,VCE,
2012-CRYSTAL (BARTON)-1,Area Survey,Observer Time,763,Acre,2012-07-21,,203,United States of America,USA,Barton,CRYSTAL (BARTON),44.7467161,-72.1762128,WGS94,10,Event,VCE,
2012-CUTTER-1,Area Survey,Observer Time,16,Acre,2012-07-21,,203,United States of America,USA,Williamstown,CUTTER,44.0906188,-72.5489933,WGS94,10,Event,VCE,
2012-DANIELS-W-1,Area Survey,Observer Time,20,Acre,2012-07-21,,203,United States of America,USA,Glover,DANIELS-W,44.68,-72.28,WGS94,10,Event,VCE,
2012-DANIELS-1,Area Survey,Observer Time,66,Acre,2012-07-21,,203,United States of America,USA,Glover,DANIELS,44.6767173,-72.2626038,WGS94,10,Event,VCE,"8:45 1 flew, then 2 flew over"
2012-DERBY-1,Area Survey,Observer Time,207,Acre,2012-07-21,,203,United States of America,USA,Derby,DERBY,44.9542134,-72.1162109,WGS94,10,Event,VCE,
2012-VALLEY-1,Area Survey,Observer Time,88,Acre,2012-07-21,,203,United States of America,USA,Woodbury,VALLEY,44.447,-72.441,WGS94,10,Event,VCE,
2012-DUNMORE-1,Area Survey,Observer Time,985,Acre,2012-07-21,,203,United States of America,USA,Salisbury,DUNMORE,43.9020068,-73.0753915,WGS94,10,Event,VCE,
2012-EAST LONG-1,Area Survey,Observer Time,188,Acre,2012-07-21,,203,United States of America,USA,Woodbury,EAST LONG,44.45,-72.35,WGS94,10,Event,VCE,
2012-ECHO (CHARTN)-1,Area Survey,Observer Time,550,Acre,2012-07-21,,203,United States of America,USA,Charleston,ECHO (CHARTN),44.8603262,-71.994819,WGS94,10,Event,VCE,
2012-ECHO (PLYMTH)-1,Area Survey,Observer Time,104,Acre,2012-07-21,,203,United States of America,USA,Plymouth,ECHO (PLYMTH),43.4734041,-72.6998192,WGS94,10,Event,VCE,
2012-EDEN-1,Area Survey,Observer Time,194,Acre,2012-07-21,,203,United States of America,USA,Eden,EDEN,44.7225493,-72.5017778,WGS94,10,Event,VCE,
2012-ELLIGO-1,Area Survey,Observer Time,174,Acre,2012-07-21,,203,United States of America,USA,Greensboro,ELLIGO,44.600052,-72.3551065,WGS94,10,Event,VCE,
2012-ELMORE-1,Area Survey,Observer Time,219,Acre,2012-07-21,,203,United States of America,USA,Elmore,ELMORE,44.5347752,-72.5253897,WGS94,10,Event,VCE,
2012-EWELL-1,Area Survey,Observer Time,51,Acre,2012-07-21,,203,United States of America,USA,Peacham,EWELL,44.37,-72.17,WGS94,10,Event,VCE,
2012-FAIRFIELD-1,Area Survey,Observer Time,446,Acre,2012-07-21,,203,United States of America,USA,Fairfield,FAIRFIELD,44.85,-72.98,WGS94,10,Event,VCE,
2012-FAIRLEE-1,Area Survey,Observer Time,457,Acre,2012-07-21,,203,United States of America,USA,Fairlee,FAIRLEE,43.88,-72.23,WGS94,10,Event,VCE,
2012-FERN-1,Area Survey,Observer Time,69,Acre,2012-07-21,,203,United States of America,USA,Leicester,FERN,43.8656187,-73.0698352,WGS94,10,Event,VCE,
2012-FOSTERS-1,Area Survey,Observer Time,61,Acre,2012-07-21,,203,United States of America,USA,Peacham,FOSTERS,44.3297812,-72.20982,WGS94,10,Event,VCE,
2012-GALE MEADOWS-1,Area Survey,Observer Time,195,Acre,2012-07-21,,203,United States of America,USA,Londonderry,GALE MEADOWS,43.17,-72.87,WGS94,10,Event,VCE,
2012-GREAT AVERILL-1,Area Survey,Observer Time,828,Acre,2012-07-21,,203,United States of America,USA,Averill,GREAT AVERILL,44.98,-71.7,WGS94,10,Event,VCE,6a 1c on 7/20
2012-GREAT HOSMER-1,Area Survey,Observer Time,140,Acre,2012-07-21,,203,United States of America,USA,Craftsbury,GREAT HOSMER,44.6947722,-72.3606624,WGS94,10,Event,VCE,
2012-GREEN RIVER-1,Area Survey,Observer Time,554,Acre,2012-07-21,,203,United States of America,USA,Hyde Park,GREEN RIVER,44.629268,-72.515443,WGS94,10,Event,VCE,
2012-GRIFFITH-1,Area Survey,Observer Time,13,Acre,2012-07-21,,203,United States of America,USA,Peru,GRIFFITH,43.3028517,-72.9592692,WGS94,10,Event,VCE,Richard Andrews
2012-GROTON-1,Area Survey,Observer Time,422,Acre,2012-07-21,,203,United States of America,USA,Groton,GROTON,44.2667271,-72.2662089,WGS94,10,Event,VCE,
2012-GROUT-1,Area Survey,Observer Time,84,Acre,2012-07-21,,203,United States of America,USA,Stratton,GROUT,43.0445226,-72.9456567,WGS94,10,Event,VCE,2 pm henry
2012-HALLS-1,Area Survey,Observer Time,85,Acre,2012-07-21,,203,United States of America,USA,Newbury,HALLS,44.085898,-72.1231473,WGS94,10,Event,VCE,
2012-HARDWICK-1,Area Survey,Observer Time,145,Acre,2012-07-21,,203,United States of America,USA,Hardwick,HARDWICK,44.52,-72.37,WGS94,10,Event,VCE,
2012-HARDWOOD-1,Area Survey,Observer Time,44,Acre,2012-07-21,,203,United States of America,USA,Elmore,HARDWOOD,44.4678324,-72.4995546,WGS94,10,Event,VCE,Check for chick
2012-HARRIMAN (WHITHM)-1,Area Survey,Observer Time,2040,Acre,2012-07-20,,202,United States of America,USA,Whitingham,HARRIMAN (WHITHM),42.83,-72.88,WGS94,10,Event,VCE,7-20 henry
2012-NORTH HARTLAND-1,Area Survey,Observer Time,215,Acre,2012-07-21,,203,United States of America,USA,Hartland,NORTH HARTLAND,43.62,-72.37,WGS94,10,Event,VCE,
2012-HARTWELL-1,Area Survey,Observer Time,16,Acre,2012-07-21,,203,United States of America,USA,Albany,HARTWELL,44.7044943,-72.293716,WGS94,10,Event,VCE,
2012-HARVEYS-1,Area Survey,Observer Time,351,Acre,2012-07-21,,203,United States of America,USA,Barnet,HARVEYS,44.3,-72.13,WGS94,10,Event,VCE,
2012-HOLLAND-1,Area Survey,Observer Time,325,Acre,2012-07-21,,203,United States of America,USA,Holland,HOLLAND,44.9867132,-71.9281516,WGS94,10,Event,VCE,
2012-HORTONIA-1,Area Survey,Observer Time,479,Acre,2012-07-21,,203,United States of America,USA,Hubbardton,HORTONIA,43.7500632,-73.2078906,WGS94,10,Event,VCE,
2012-INDIAN BROOK (ESSEX)-1,Area Survey,Observer Time,50,Acre,2012-07-21,,203,United States of America,USA,Essex,INDIAN BROOK (ESSEX),44.53,-73.1,WGS94,10,Event,VCE,
2012-IROQUOIS-1,Area Survey,Observer Time,243,Acre,2012-07-20,,202,United States of America,USA,Hinesburg,IROQUOIS,44.37,-73.08,WGS94,10,Event,VCE,7/20 linda mcelvany
2012-JOBS-1,Area Survey,Observer Time,39,Acre,2012-07-21,,203,United States of America,USA,Westmore,JOBS,44.7628276,-71.9537072,WGS94,10,Event,VCE,
2012-JOES (DANVLL)-1,Area Survey,Observer Time,396,Acre,2012-07-21,,203,United States of America,USA,Danville,JOES (DANVLL),44.4083904,-72.1945436,WGS94,10,Event,VCE,
2012-KEISER-1,Area Survey,Observer Time,33,Acre,2012-07-21,,203,United States of America,USA,Danville,KEISER,44.3864467,-72.1706537,WGS94,10,Event,VCE,
2012-KENT-1,Area Survey,Observer Time,99,Acre,2012-07-21,,203,United States of America,USA,Killington,KENT,43.68,-72.8,WGS94,10,Event,VCE,
2012-KETTLE-1,Area Survey,Observer Time,109,Acre,2012-07-21,,203,United States of America,USA,Peacham,KETTLE,44.2947817,-72.3181558,WGS94,10,Event,VCE,
2012-KNAPP BROOK #1-1,Area Survey,Observer Time,25,Acre,2012-07-21,,203,United States of America,USA,Cavendish,KNAPP BROOK #1,43.447016,-72.5662041,WGS94,10,Event,VCE,
2012-KNAPP BROOK #2-1,Area Survey,Observer Time,35,Acre,2012-07-21,,203,United States of America,USA,Cavendish,KNAPP BROOK #2,43.45,-72.57,WGS94,10,Event,VCE,
2012-LAMOILLE-1,Area Survey,Observer Time,148,Acre,2012-07-21,,203,United States of America,USA,Hyde Park,LAMOILLE,44.57,-72.62,WGS94,10,Event,VCE,
2012-LEVI-1,Area Survey,Observer Time,22,Acre,2012-07-21,,203,United States of America,USA,Groton,LEVI,44.2672827,-72.2262078,WGS94,10,Event,VCE,
2012-LEWIS-1,Area Survey,Observer Time,68,Acre,2012-07-21,,203,United States of America,USA,Lewis,LEWIS,44.8833812,-71.7806495,WGS94,10,Event,VCE,"7/20 Rachel, 7/21 1 a marshals"
2012-LITTLE AVERILL-1,Area Survey,Observer Time,467,Acre,2012-07-21,,203,United States of America,USA,Averill,LITTLE AVERILL,44.9556024,-71.7162039,WGS94,10,Event,VCE,
2012-LITTLE HOSMER-1,Area Survey,Observer Time,180,Acre,2012-07-21,,203,United States of America,USA,Craftsbury,LITTLE HOSMER,44.68,-72.38,WGS94,10,Event,VCE,
2012-LITTLE ROCK-1,Area Survey,Observer Time,18,Acre,2012-07-21,,203,United States of America,USA,Wallingford,LITTLE ROCK,43.4006275,-72.9562145,WGS94,10,Event,VCE,
2012-LONG (EDEN)-1,Area Survey,Observer Time,97,Acre,2012-07-21,,203,United States of America,USA,Eden,LONG (EDEN),44.77,-72.6,WGS94,10,Event,VCE,
2012-LONG (GRNSBO)-1,Area Survey,Observer Time,100,Acre,2012-07-21,,203,United States of America,USA,Greensboro,LONG (GRNSBO),44.6256073,-72.263437,WGS94,10,Event,VCE,
2012-LONG (SHEFLD)-1,Area Survey,Observer Time,38,Acre,2012-07-21,,203,United States of America,USA,Sheffield,LONG (SHEFLD),44.6767178,-72.1437116,WGS94,10,Event,VCE,
2012-LONG (WESTMR)-1,Area Survey,Observer Time,90,Acre,2012-07-21,,203,United States of America,USA,Westmore,LONG (WESTMR),44.7506056,-72.0178751,WGS94,10,Event,VCE,
2012-LOWELL-1,Area Survey,Observer Time,57,Acre,2012-07-21,,203,United States of America,USA,Londonderry,LOWELL,43.22,-72.77,WGS94,10,Event,VCE,
2012-LOWER SYMES-1,Area Survey,Observer Time,77,Acre,2012-07-21,,203,United States of America,USA,Ryegate,LOWER SYMES,44.25,-72.1,WGS94,10,Event,VCE,
2012-MAIDSTONE-1,Area Survey,Observer Time,745,Acre,2012-07-21,,203,United States of America,USA,Maidstone,MAIDSTONE,44.6486637,-71.6470329,WGS94,10,Event,VCE,
2012-TURTLEHEAD-1,Area Survey,Observer Time,69,Acre,2012-07-21,,203,United States of America,USA,Marshfield,TURTLEHEAD,44.3258919,-72.330657,WGS94,10,Event,VCE,
2012-MARTINS-1,Area Survey,Observer Time,82,Acre,2012-07-21,,203,United States of America,USA,Peacham,MARTINS,44.3,-72.22,WGS94,10,Event,VCE,
2012-MAY-1,Area Survey,Observer Time,116,Acre,2012-07-21,,203,United States of America,USA,Barton,MAY,44.7417164,-72.1228779,WGS94,10,Event,VCE,martha gordon
2012-MCCONNELL-1,Area Survey,Observer Time,87,Acre,2012-07-21,,203,United States of America,USA,Brighton,MCCONNELL,44.8189378,-71.8039827,WGS94,10,Event,VCE,eric
2012-MEMPHREMAGOG-1,Area Survey,Observer Time,5966,Acre,2012-07-21,,203,United States of America,USA,Derby,MEMPHREMAGOG,44.9853239,-72.2151023,WGS94,10,Event,VCE,
2012-METCALF-1,Area Survey,Observer Time,81,Acre,2012-07-21,,203,United States of America,USA,Fletcher,METCALF,44.7283824,-72.8840236,WGS94,10,Event,VCE,
2012-MILES-1,Area Survey,Observer Time,215,Acre,2012-07-21,,203,United States of America,USA,Concord,MILES,44.45,-71.82,WGS94,10,Event,VCE,
2012-MILLER (STRFRD)-1,Area Survey,Observer Time,64,Acre,2012-07-21,,203,United States of America,USA,Strafford,MILLER (STRFRD),43.9,-72.3,WGS94,10,Event,VCE,
2012-MOLLYS-1,Area Survey,Observer Time,38,Acre,2012-07-21,,203,United States of America,USA,Cabot,MOLLYS,44.3939461,-72.2359332,WGS94,10,Event,VCE,
2012-MOLLYS FALLS-1,Area Survey,Observer Time,397,Acre,2012-07-21,,203,United States of America,USA,Marshfield,MOLLYS FALLS,44.35,-72.28,WGS94,10,Event,VCE,possibly missed south pair
2012-MOORE-1,Area Survey,Observer Time,1235,Acre,2012-07-21,,203,United States of America,USA,Waterford,MOORE,44.33,-71.87,WGS94,10,Event,VCE,liz
2012-MOREY-1,Area Survey,Observer Time,547,Acre,2012-07-21,,203,United States of America,USA,Fairlee,MOREY,43.9247901,-72.1498123,WGS94,10,Event,VCE,
2012-MUD (HYDEPK)-1,Area Survey,Observer Time,14,Acre,2012-07-21,,203,United States of America,USA,Hyde Park,MUD (HYDEPK),44.605885,-72.5034444,WGS94,10,Event,VCE,
2012-MUD (PEACHM)-1,Area Survey,Observer Time,34,Acre,2012-07-21,,203,United States of America,USA,Peacham,MUD (PEACHM),44.3072818,-72.2125974,WGS94,10,Event,VCE,
2012-NEAL-1,Area Survey,Observer Time,186,Acre,2012-07-21,,203,United States of America,USA,Lunenburg,NEAL,44.4897795,-71.6920327,WGS94,10,Event,VCE,
2012-NEWARK-1,Area Survey,Observer Time,153,Acre,2012-07-21,,203,United States of America,USA,Newark,NEWARK,44.7175509,-71.9823186,WGS94,10,Event,VCE,
2012-NICHOLS-1,Area Survey,Observer Time,171,Acre,2012-07-21,,203,United States of America,USA,Woodbury,NICHOLS,44.45,-72.35,WGS94,10,Event,VCE,
2012-NINEVAH-1,Area Survey,Observer Time,171,Acre,2012-07-21,,203,United States of America,USA,Mt. Holly,NINEVAH,43.47,-72.75,WGS94,10,Event,VCE,
2012-MIRROR-1,Area Survey,Observer Time,85,Acre,2012-07-21,,203,United States of America,USA,Calais,MIRROR,44.4,-72.45,WGS94,10,Event,VCE,baea
2012-NORTH SPRINGFIELD-1,Area Survey,Observer Time,290,Acre,2012-07-21,,203,United States of America,USA,Springfield,NORTH SPRINGFIELD,43.35,-72.5,WGS94,10,Event,VCE,
2012-NORTON-1,Area Survey,Observer Time,583,Acre,2012-07-21,,203,United States of America,USA,Norton,NORTON,44.93,-71.87,WGS94,10,Event,VCE,
2012-NOTCH-1,Area Survey,Observer Time,22,Acre,2012-07-21,,203,United States of America,USA,Ferdinand,NOTCH,44.7406056,-71.7173137,WGS94,10,Event,VCE,
2012-NOYES-1,Area Survey,Observer Time,39,Acre,2012-07-21,,203,United States of America,USA,Groton,NOYES,44.23,-72.32,WGS94,10,Event,VCE,
2012-NULHEGAN-1,Area Survey,Observer Time,37,Acre,2012-07-21,,203,United States of America,USA,Brighton,NULHEGAN,44.791716,-71.8178717,WGS94,10,Event,VCE,marshall
2012-OSMORE-1,Area Survey,Observer Time,48,Acre,2012-07-21,,203,United States of America,USA,Groton,OSMORE,44.3083926,-72.2781547,WGS94,10,Event,VCE,
2012-PARKER-1,Area Survey,Observer Time,250,Acre,2012-07-21,,203,United States of America,USA,Glover,PARKER,44.7194941,-72.2328808,WGS94,10,Event,VCE,
2012-PEACHAM-1,Area Survey,Observer Time,340,Acre,2012-07-21,,203,United States of America,USA,Peacham,PEACHAM,44.33,-72.27,WGS94,10,Event,VCE,karen dusini
2012-PENSIONER-1,Area Survey,Observer Time,173,Acre,2012-07-21,,203,United States of America,USA,Charleston,PENSIONER,44.8736591,-72.0573206,WGS94,10,Event,VCE,
2012-PIGEON-1,Area Survey,Observer Time,69,Acre,2012-07-21,,203,United States of America,USA,Groton,PIGEON,44.245894,-72.3284329,WGS94,10,Event,VCE,
2012-PLEIAD-1,Area Survey,Observer Time,6,Acre,2012-07-21,,203,United States of America,USA,Hancock,PLEIAD,43.9339521,-72.9578898,WGS94,10,Event,VCE,henry
2012-RAPONDA-1,Area Survey,Observer Time,121,Acre,2012-07-21,,203,United States of America,USA,Wilmington,RAPONDA,42.8750812,-72.8175965,WGS94,10,Event,VCE,1 ad 7/18
2012-RICKER-1,Area Survey,Observer Time,95,Acre,2012-07-21,,203,United States of America,USA,Groton,RICKER,44.2470054,-72.244541,WGS94,10,Event,VCE,
2012-ROOD-1,Area Survey,Observer Time,23,Acre,2012-07-21,,203,United States of America,USA,Williamstown,ROOD,44.0770076,-72.5889944,WGS94,10,Event,VCE,
2012-SALEM-1,Area Survey,Observer Time,764,Acre,2012-07-21,,203,United States of America,USA,Derby,SALEM,44.9292138,-72.1037106,WGS94,10,Event,VCE,
2012-SEARSBURG-1,Area Survey,Observer Time,25,Acre,2012-07-21,,203,United States of America,USA,Searsburg,SEARSBURG,42.92,-72.93,WGS94,10,Event,VCE,
2012-SEYMOUR-1,Area Survey,Observer Time,1769,Acre,2012-07-30,,212,United States of America,USA,Morgan,SEYMOUR,44.8969923,-71.9817632,WGS94,10,Event,VCE,7/30 charles and denis
2012-SHADOW (GLOVER)-1,Area Survey,Observer Time,210,Acre,2012-07-21,,203,United States of America,USA,Glover,SHADOW (GLOVER),44.668103,-72.226571,WGS94,10,Event,VCE,
2012-SHERMAN-1,Area Survey,Observer Time,160,Acre,2012-07-21,,203,United States of America,USA,Whitingham,SHERMAN,42.73,-72.92,WGS94,10,Event,VCE,
2012-SILVER (LEICTR)-1,Area Survey,Observer Time,101,Acre,2012-07-21,,203,United States of America,USA,Leicester,SILVER (LEICTR),43.88,-73.05,WGS94,10,Event,VCE,
2012-SOMERSET-1,Area Survey,Observer Time,1568,Acre,2012-07-21,,203,United States of America,USA,Somerset,SOMERSET,43.009708,-72.952621,WGS94,10,Event,VCE,
2012-SOUTH AMERICA-1,Area Survey,Observer Time,29,Acre,2012-07-21,,203,United States of America,USA,Ferdinand,SOUTH AMERICA,44.7056067,-71.7431474,WGS94,10,Event,VCE,marshall
2012-SOUTH BAY-1,Area Survey,Observer Time,470,Acre,2012-07-21,,203,United States of America,USA,Newport City,SOUTH BAY,44.93,-72.2,WGS94,10,Event,VCE,
2012-SPECTACLE-1,Area Survey,Observer Time,103,Acre,2012-07-21,,203,United States of America,USA,Brighton,SPECTACLE,44.8006048,-71.8503722,WGS94,10,Event,VCE,
2012-ST. CATHERINE-1,Area Survey,Observer Time,883,Acre,2012-07-21,,203,United States of America,USA,Wells,ST. CATHERINE,43.47,-73.22,WGS94,10,Event,VCE,
2012-STAR-1,Area Survey,Observer Time,63,Acre,2012-07-21,,203,United States of America,USA,Mount Holly,STAR,43.419516,-72.8162108,WGS94,10,Event,VCE,bob tucker
2012-STILES-1,Area Survey,Observer Time,135,Acre,2012-07-21,,203,United States of America,USA,Waterford,STILES,44.42,-71.93,WGS94,10,Event,VCE,liz
2012-STOUGHTON-1,Area Survey,Observer Time,56,Acre,2012-07-21,,203,United States of America,USA,Weathersfield,STOUGHTON,43.3792397,-72.4998126,WGS94,10,Event,VCE,julie lloyd wright
2012-STRATTON-1,Area Survey,Observer Time,46,Acre,2012-07-21,,203,United States of America,USA,Stratton,STRATTON,43.1039661,-72.9698243,WGS94,10,Event,VCE,
2012-SUGAR HILL-1,Area Survey,Observer Time,63,Acre,2012-07-21,,203,United States of America,USA,Goshen,SUGAR HILL,43.92,-73,WGS94,10,Event,VCE,
2012-SUNSET (MARLBR)-1,Area Survey,Observer Time,96,Acre,2012-07-21,,203,United States of America,USA,Marlboro,SUNSET (MARLBR),42.92,-72.68,WGS94,10,Event,VCE,
2012-THURMAN W. DIX-1,Area Survey,Observer Time,123,Acre,2012-07-21,,203,United States of America,USA,Orange,THURMAN W. DIX,44.18,-72.42,WGS94,10,Event,VCE,janet steward
2012-TICKLENAKED-1,Area Survey,Observer Time,54,Acre,2012-07-21,,203,United States of America,USA,Ryegate,TICKLENAKED,44.1892294,-72.0987041,WGS94,10,Event,VCE,
2012-TOAD (CHARTN)-1,Area Survey,Observer Time,22,Acre,2012-07-21,,203,United States of America,USA,Charleston,TOAD (CHARTN),44.8489373,-72.0475981,WGS94,10,Event,VCE,
2012-TOWNSHEND-1,Area Survey,Observer Time,108,Acre,2012-07-21,,203,United States of America,USA,Townshend,TOWNSHEND,43.05,-72.7,WGS94,10,Event,VCE,charles davis
2012-TWIN-1,Area Survey,Observer Time,16,Acre,2012-07-21,,203,United States of America,USA,Brookfield,TWIN,44.0611747,-72.5795493,WGS94,10,Event,VCE,
2012-WALLINGFORD-1,Area Survey,Observer Time,87,Acre,2012-07-21,,203,United States of America,USA,Wallingford,WALLINGFORD,43.4145161,-72.9095466,WGS94,10,Event,VCE,
2012-WANTASTIQUET-1,Area Survey,Observer Time,44,Acre,2012-07-21,,203,United States of America,USA,Weston,WANTASTIQUET,43.3,-72.82,WGS94,10,Event,VCE,charles davis
2012-TUTTLE (HARDWK)-1,Area Survey,Observer Time,21,Acre,2012-07-21,,203,United States of America,USA,Hardwick,TUTTLE (HARDWK),44.5581086,-72.310105,WGS94,10,Event,VCE,
2012-WARDEN-1,Area Survey,Observer Time,46,Acre,2012-07-21,,203,United States of America,USA,Barnet,WARDEN,44.3300597,-72.0781505,WGS94,10,Event,VCE,liz
2012-WATERBURY-1,Area Survey,Observer Time,839,Acre,2012-07-21,,203,United States of America,USA,Waterbury,WATERBURY,44.38,-72.77,WGS94,10,Event,VCE,
2012-WEST HILL-1,Area Survey,Observer Time,46,Acre,2012-07-21,,203,United States of America,USA,Cabot,WEST HILL,44.4177364,-72.3429895,WGS94,10,Event,VCE,"rollin tebbets, wiesen, "
2012-WEST MOUNTAIN-1,Area Survey,Observer Time,60,Acre,2012-07-21,,203,United States of America,USA,Maidstone,WEST MOUNTAIN,44.6892181,-71.6620338,WGS94,10,Event,VCE,
2012-WHEELER (BRUNWK)-1,Area Survey,Observer Time,66,Acre,2012-07-21,,203,United States of America,USA,Brunswick,WHEELER (BRUNWK),44.708384,-71.6395333,WGS94,10,Event,VCE,
2012-WILLOUGHBY-1,Area Survey,Observer Time,1653,Acre,2012-07-21,,203,United States of America,USA,Westmore,WILLOUGHBY,44.7519942,-72.0628763,WGS94,10,Event,VCE,choppy north 1/2 - could have missed many
2012-WOLCOTT-1,Area Survey,Observer Time,74,Acre,2012-07-21,,203,United States of America,USA,Wolcott,WOLCOTT,44.56532569,-72.42045722,WGS94,10,Event,VCE,
2012-WOODBURY-1,Area Survey,Observer Time,142,Acre,2012-07-21,,203,United States of America,USA,Woodbury,WOODBURY,44.43,-72.42,WGS94,10,Event,VCE,
2012-WOODWARD-1,Area Survey,Observer Time,106,Acre,2012-07-21,,203,United States of America,USA,Plymouth,WOODWARD,43.56577923,-72.75853066,WGS94,10,Event,VCE,
2012-ZACK WOODS-1,Area Survey,Observer Time,23,Acre,2012-07-21,,203,United States of America,USA,Hyde Park,ZACK WOODS,44.6106072,-72.5012221,WGS94,10,Event,VCE,
2013-AMHERST-1,Area Survey,Observer Time,81,Acre,2013-07-20,,201,United States of America,USA,Plymouth,AMHERST,43.4856261,-72.7042639,WGS94,10,Event,VCE,
2013-BAKER (BARTON)-1,Area Survey,Observer Time,51,Acre,2013-07-20,,201,United States of America,USA,Barton,BAKER (BARTON),44.746438,-72.2348255,WGS94,10,Event,VCE,
2013-BALD HILL-1,Area Survey,Observer Time,108,Acre,2013-07-20,,201,United States of America,USA,Westmore,BALD HILL,44.7394947,-71.9778742,WGS94,10,Event,VCE,flying during the hour
2013-BEAN (SUTTON)-1,Area Survey,Observer Time,30,Acre,2013-07-20,,201,United States of America,USA,Sutton,BEAN (SUTTON),44.6983842,-72.0862101,WGS94,10,Event,VCE,
2013-BEAVER (HOLLND)-1,Area Survey,Observer Time,40,Acre,2013-07-20,,201,United States of America,USA,Holland,BEAVER (HOLLND),45.0047684,-71.9398184,WGS94,10,Event,VCE,Chris owen; incubating
2013-BEEBE (HUBDTN)-1,Area Survey,Observer Time,111,Acre,2013-07-19,,200,United States of America,USA,Hubbardton,BEEBE (HUBDTN),43.7342306,-73.1831677,WGS94,10,Event,VCE,eric 7/19
2013-BEEBE (SUNDLD)-1,Area Survey,Observer Time,13,Acre,2013-07-20,,201,United States of America,USA,Sunderland,BEEBE (SUNDLD),43.0523,-73.0320481,WGS94,10,Event,VCE,
2013-BERLIN-1,Area Survey,Observer Time,293,Acre,2013-07-20,,201,United States of America,USA,Berlin,BERLIN,44.18,-72.58,WGS94,10,Event,VCE,
2013-BLISS-1,Area Survey,Observer Time,46,Acre,2013-07-20,,201,United States of America,USA,Calais,BLISS,44.3525574,-72.5006635,WGS94,10,Event,VCE,
2013-BOMOSEEN-1,Area Survey,Observer Time,2360,Acre,2013-07-19,,200,United States of America,USA,Castleton,BOMOSEEN,43.6442324,-73.2131665,WGS94,10,Event,VCE,wavy 7/19
2013-BOURN-1,Area Survey,Observer Time,48,Acre,2013-07-20,,201,United States of America,USA,Sunderland,BOURN,43.1061882,-73.0020474,WGS94,10,Event,VCE,
2013-BRANCH-1,Area Survey,Observer Time,34,Acre,2013-07-20,,201,United States of America,USA,Sunderland,BRANCH,43.0809107,-73.0189922,WGS94,10,Event,VCE,
2013-BROWNINGTON-1,Area Survey,Observer Time,139,Acre,2013-07-20,,201,United States of America,USA,Brownington,BROWNINGTON,44.8786588,-72.1476007,WGS94,10,Event,VCE,
2013-BRUCE-1,Area Survey,Observer Time,27,Acre,2013-07-20,,201,United States of America,USA,Sutton,BRUCE,44.6403295,-72.187046,WGS94,10,Event,VCE,keep jeff rand on list
2013-BUCK-1,Area Survey,Observer Time,39,Acre,2013-07-20,,201,United States of America,USA,Woodbury,BUCK,44.462555,-72.3995513,WGS94,10,Event,VCE,19-Jul
2013-BURR (SUDBRY)-1,Area Survey,Observer Time,85,Acre,2013-07-20,,201,United States of America,USA,Sudbury,BURR (SUDBRY),43.77,-73.18,WGS94,10,Event,VCE,
2013-CARMI-1,Area Survey,Observer Time,1401,Acre,2013-07-20,,201,United States of America,USA,Franklin,CARMI,44.9714333,-72.877911,WGS94,10,Event,VCE,
2013-CASPIAN-1,Area Survey,Observer Time,789,Acre,2013-07-20,,201,United States of America,USA,Greensboro,CASPIAN,44.58,-72.32,WGS94,10,Event,VCE,
2013-CENTER-1,Area Survey,Observer Time,79,Acre,2013-07-21,,202,United States of America,USA,Newark,CENTER,44.7144953,-71.9198175,WGS94,10,Event,VCE,7/21 survey
2013-CHANDLER (WHLOCK)-1,Area Survey,Observer Time,68,Acre,2013-07-20,,201,United States of America,USA,Wheelock,CHANDLER (WHLOCK),44.53,-72.1,WGS94,10,Event,VCE,
2013-CHARLESTON-1,Area Survey,Observer Time,40,Acre,2013-07-20,,201,United States of America,USA,Charleston,CHARLESTON,44.8928256,-72.0531538,WGS94,10,Event,VCE,"sat. 7 pm, Friday pm 3ad terry"
2013-CHITTENDEN-1,Area Survey,Observer Time,702,Acre,2013-07-20,,201,United States of America,USA,Chittenden,CHITTENDEN,43.73,-72.92,WGS94,10,Event,VCE,
2013-TILDYS-1,Area Survey,Observer Time,33,Acre,2013-07-20,,201,United States of America,USA,Glover,TILDYS,44.65,-72.2,WGS94,10,Event,VCE,
2013-CLYDE-1,Area Survey,Observer Time,186,Acre,2013-07-20,,201,United States of America,USA,Derby,CLYDE,44.9353246,-72.1712124,WGS94,10,Event,VCE,
2013-COITS-1,Area Survey,Observer Time,40,Acre,2013-07-20,,201,United States of America,USA,Cabot,COITS,44.4472777,-72.3295486,WGS94,10,Event,VCE,incubating
2013-COLE-1,Area Survey,Observer Time,41,Acre,2013-07-20,,201,United States of America,USA,Jamaica,COLE,43.1470213,-72.8056529,WGS94,10,Event,VCE,16-Jul
2013-COLES-1,Area Survey,Observer Time,125,Acre,2013-07-20,,201,United States of America,USA,Walden,COLES,44.52,-72.22,WGS94,10,Event,VCE,
2013-COLLINS-1,Area Survey,Observer Time,16,Acre,2013-07-20,,201,United States of America,USA,Hyde Park,COLLINS,44.6214402,-72.5042778,WGS94,10,Event,VCE,
2013-CRANBERRY MEADOW-1,Area Survey,Observer Time,28,Acre,2013-07-20,,201,United States of America,USA,Woodbury,CRANBERRY MEADOW,44.4208892,-72.4573301,WGS94,10,Event,VCE,
2013-CRYSTAL (BARTON)-1,Area Survey,Observer Time,763,Acre,2013-07-20,,201,United States of America,USA,Barton,CRYSTAL (BARTON),44.7467161,-72.1762128,WGS94,10,Event,VCE,"ellen 5:30 am, stan did survey- results?"
2013-CURTIS-1,Area Survey,Observer Time,72,Acre,2013-07-20,,201,United States of America,USA,Calais,CURTIS,44.38,-72.5,WGS94,10,Event,VCE,
2013-DANIELS-1,Area Survey,Observer Time,66,Acre,2013-07-20,,201,United States of America,USA,Glover,DANIELS,44.6767173,-72.2626038,WGS94,10,Event,VCE,
2013-DERBY-1,Area Survey,Observer Time,207,Acre,2013-07-20,,201,United States of America,USA,Derby,DERBY,44.9542134,-72.1162109,WGS94,10,Event,VCE,
2013-VALLEY-1,Area Survey,Observer Time,88,Acre,2013-07-20,,201,United States of America,USA,Woodbury,VALLEY,44.447,-72.441,WGS94,10,Event,VCE,
2013-DUNMORE-1,Area Survey,Observer Time,985,Acre,2013-07-20,,201,United States of America,USA,Salisbury,DUNMORE,43.9020068,-73.0753915,WGS94,10,Event,VCE,1 ad flying 30 min after obs. 2A
2013-EAST LONG-1,Area Survey,Observer Time,188,Acre,2013-07-20,,201,United States of America,USA,Woodbury,EAST LONG,44.45,-72.35,WGS94,10,Event,VCE,
2013-ECHO (CHARTN)-1,Area Survey,Observer Time,550,Acre,2013-07-20,,201,United States of America,USA,Charleston,ECHO (CHARTN),44.8603262,-71.994819,WGS94,10,Event,VCE,
2013-ECHO (HUBDTN)-1,Area Survey,Observer Time,54,Acre,2013-07-20,,201,United States of America,USA,Hubbardton,ECHO (HUBDTN),43.7458969,-73.1828902,WGS94,10,Event,VCE,
2013-ECHO (PLYMTH)-1,Area Survey,Observer Time,104,Acre,2013-07-20,,201,United States of America,USA,Plymouth,ECHO (PLYMTH),43.4734041,-72.6998192,WGS94,10,Event,VCE,
2013-EDEN-1,Area Survey,Observer Time,194,Acre,2013-07-20,,201,United States of America,USA,Eden,EDEN,44.7225493,-72.5017778,WGS94,10,Event,VCE,
2013-ELLIGO-1,Area Survey,Observer Time,174,Acre,2013-07-20,,201,United States of America,USA,Greensboro,ELLIGO,44.600052,-72.3551065,WGS94,10,Event,VCE,
2013-ELMORE-1,Area Survey,Observer Time,219,Acre,2013-07-20,,201,United States of America,USA,Elmore,ELMORE,44.5347752,-72.5253897,WGS94,10,Event,VCE,
2013-EWELL-1,Area Survey,Observer Time,51,Acre,2013-07-20,,201,United States of America,USA,Peacham,EWELL,44.37,-72.17,WGS94,10,Event,VCE,
2013-FAIRFIELD-1,Area Survey,Observer Time,446,Acre,2013-07-20,,201,United States of America,USA,Fairfield,FAIRFIELD,44.85,-72.98,WGS94,10,Event,VCE,
2013-FAIRLEE-1,Area Survey,Observer Time,457,Acre,2013-07-20,,201,United States of America,USA,Fairlee,FAIRLEE,43.88,-72.23,WGS94,10,Event,VCE,
2013-FERN-1,Area Survey,Observer Time,69,Acre,2013-07-20,,201,United States of America,USA,Leicester,FERN,43.8656187,-73.0698352,WGS94,10,Event,VCE,
2013-FLAGG-1,Area Survey,Observer Time,111,Acre,2013-07-20,,201,United States of America,USA,Wheelock,FLAGG,44.5653311,-72.2073241,WGS94,10,Event,VCE,
2013-FOREST (AVERLL)-1,Area Survey,Observer Time,62,Acre,2013-07-20,,201,United States of America,USA,Averill,FOREST (AVERLL),44.9847686,-71.6814803,WGS94,10,Event,VCE,
2013-FOSTERS-1,Area Survey,Observer Time,61,Acre,2013-07-20,,201,United States of America,USA,Peacham,FOSTERS,44.3297812,-72.20982,WGS94,10,Event,VCE,
2013-GALE MEADOWS-1,Area Survey,Observer Time,195,Acre,2013-07-20,,201,United States of America,USA,Londonderry,GALE MEADOWS,43.17,-72.87,WGS94,10,Event,VCE,
2013-GLEN-1,Area Survey,Observer Time,206,Acre,2013-07-20,,201,United States of America,USA,Fair Haven,GLEN,43.67,-73.23,WGS94,10,Event,VCE,
2013-GREAT AVERILL-1,Area Survey,Observer Time,828,Acre,2013-07-20,,201,United States of America,USA,Averill,GREAT AVERILL,44.98,-71.7,WGS94,10,Event,VCE,
2013-GREAT HOSMER-1,Area Survey,Observer Time,140,Acre,2013-07-20,,201,United States of America,USA,Craftsbury,GREAT HOSMER,44.6947722,-72.3606624,WGS94,10,Event,VCE,
2013-GREEN RIVER-1,Area Survey,Observer Time,554,Acre,2013-07-20,,201,United States of America,USA,Hyde Park,GREEN RIVER,44.629268,-72.515443,WGS94,10,Event,VCE,
2013-GREENWOOD-1,Area Survey,Observer Time,96,Acre,2013-07-20,,201,United States of America,USA,Woodbury,GREENWOOD,44.4586661,-72.4253853,WGS94,10,Event,VCE,sarah hingston 2a 1 c
2013-GROTON-1,Area Survey,Observer Time,422,Acre,2013-07-20,,201,United States of America,USA,Groton,GROTON,44.2667271,-72.2662089,WGS94,10,Event,VCE,1
2013-GROUT-1,Area Survey,Observer Time,84,Acre,2013-07-20,,201,United States of America,USA,Stratton,GROUT,43.0445226,-72.9456567,WGS94,10,Event,VCE,Frank thompson
2013-HALLS-1,Area Survey,Observer Time,85,Acre,2013-07-20,,201,United States of America,USA,Newbury,HALLS,44.085898,-72.1231473,WGS94,10,Event,VCE,
2013-HARDWICK-1,Area Survey,Observer Time,145,Acre,2013-07-20,,201,United States of America,USA,Hardwick,HARDWICK,44.52,-72.37,WGS94,10,Event,VCE,keep sheila lapoing on list
2013-HARDWOOD-1,Area Survey,Observer Time,44,Acre,2013-07-20,,201,United States of America,USA,Elmore,HARDWOOD,44.4678324,-72.4995546,WGS94,10,Event,VCE,7/21 2 ad 3 pm
2013-HARRIMAN (WHITHM)-1,Area Survey,Observer Time,2040,Acre,2013-07-19,,200,United States of America,USA,Whitingham,HARRIMAN (WHITHM),42.83,-72.88,WGS94,10,Event,VCE,Friday henry; 7/21 0 ruth stewart partial survey
2013-HARTWELL-1,Area Survey,Observer Time,16,Acre,2013-07-20,,201,United States of America,USA,Albany,HARTWELL,44.7044943,-72.293716,WGS94,10,Event,VCE,Amelia fritze
2013-HARVEYS-1,Area Survey,Observer Time,351,Acre,2013-07-20,,201,United States of America,USA,Barnet,HARVEYS,44.3,-72.13,WGS94,10,Event,VCE,
2013-HOLLAND-1,Area Survey,Observer Time,325,Acre,2013-07-20,,201,United States of America,USA,Holland,HOLLAND,44.9867132,-71.9281516,WGS94,10,Event,VCE,4 ad chris owen; 6 ad listed by Lauren - not sure source; change back to 6 if locate
2013-HORTONIA-1,Area Survey,Observer Time,479,Acre,2013-07-20,,201,United States of America,USA,Hubbardton,HORTONIA,43.7500632,-73.2078906,WGS94,10,Event,VCE,
2013-HOWE-1,Area Survey,Observer Time,52,Acre,2013-07-21,,202,United States of America,USA,Readsboro,HOWE,42.7842485,-72.9859342,WGS94,10,Event,VCE,Sunday
2013-IROQUOIS-1,Area Survey,Observer Time,243,Acre,2013-07-21,,202,United States of America,USA,Hinesburg,IROQUOIS,44.37,-73.08,WGS94,10,Event,VCE,8 am 7/21 Sunday
2013-ISLAND-1,Area Survey,Observer Time,626,Acre,2013-07-20,,201,United States of America,USA,Brighton,ISLAND,44.8050491,-71.8706504,WGS94,10,Event,VCE,marshall
2013-JOBS-1,Area Survey,Observer Time,39,Acre,2013-07-20,,201,United States of America,USA,Westmore,JOBS,44.7628276,-71.9537072,WGS94,10,Event,VCE,
2013-JOES (DANVLL)-1,Area Survey,Observer Time,396,Acre,2013-07-20,,201,United States of America,USA,Danville,JOES (DANVLL),44.4083904,-72.1945436,WGS94,10,Event,VCE,
2013-KEISER-1,Area Survey,Observer Time,33,Acre,2013-07-20,,201,United States of America,USA,Danville,KEISER,44.3864467,-72.1706537,WGS94,10,Event,VCE,
2013-KENT-1,Area Survey,Observer Time,99,Acre,2013-07-20,,201,United States of America,USA,Killington,KENT,43.68,-72.8,WGS94,10,Event,VCE,
2013-KETTLE-1,Area Survey,Observer Time,109,Acre,2013-07-20,,201,United States of America,USA,Peacham,KETTLE,44.2947817,-72.3181558,WGS94,10,Event,VCE,cindy grimes
2013-LAMOILLE-1,Area Survey,Observer Time,148,Acre,2013-07-20,,201,United States of America,USA,Hyde Park,LAMOILLE,44.57,-72.62,WGS94,10,Event,VCE,
2013-LEWIS-1,Area Survey,Observer Time,68,Acre,2013-07-20,,201,United States of America,USA,Lewis,LEWIS,44.8833812,-71.7806495,WGS94,10,Event,VCE,Marshall; 1 ad Friday rachel
2013-LILY (POULTY)-1,Area Survey,Observer Time,22,Acre,2013-07-20,,201,United States of America,USA,Poultney,LILY (POULTY),43.4950694,-73.2073303,WGS94,10,Event,VCE,
2013-LITTLE (WELLS)-1,Area Survey,Observer Time,177,Acre,2013-07-20,,201,United States of America,USA,Wells,LITTLE (WELLS),43.4322933,-73.2028855,WGS94,10,Event,VCE,
2013-LITTLE AVERILL-1,Area Survey,Observer Time,467,Acre,2013-07-20,,201,United States of America,USA,Averill,LITTLE AVERILL,44.9556024,-71.7162039,WGS94,10,Event,VCE,
2013-LITTLE HOSMER-1,Area Survey,Observer Time,180,Acre,2013-07-20,,201,United States of America,USA,Craftsbury,LITTLE HOSMER,44.68,-72.38,WGS94,10,Event,VCE,tom and linda wells surveyed; cannot find data sheet
2013-SALEM-1,Area Survey,Observer Time,50,Acre,2013-07-20,,201,United States of America,USA,Derby,SALEM,44.9292138,-72.1037106,WGS94,10,Event,VCE,eric 12 pm
2013-LONG (EDEN)-1,Area Survey,Observer Time,97,Acre,2013-07-20,,201,United States of America,USA,Eden,LONG (EDEN),44.77,-72.6,WGS94,10,Event,VCE,1 phyllis
2013-LONG (SHEFLD)-1,Area Survey,Observer Time,38,Acre,2013-07-20,,201,United States of America,USA,Sheffield,LONG (SHEFLD),44.6767178,-72.1437116,WGS94,10,Event,VCE,
2013-LOWELL-1,Area Survey,Observer Time,57,Acre,2013-07-20,,201,United States of America,USA,Londonderry,LOWELL,43.22,-72.77,WGS94,10,Event,VCE,
2013-LOWER SYMES-1,Area Survey,Observer Time,77,Acre,2013-07-20,,201,United States of America,USA,Ryegate,LOWER SYMES,44.25,-72.1,WGS94,10,Event,VCE,1 flyover
2013-LYFORD-1,Area Survey,Observer Time,33,Acre,2013-07-20,,201,United States of America,USA,Walden,LYFORD,44.4456114,-72.2467681,WGS94,10,Event,VCE,
2013-MAIDSTONE-1,Area Survey,Observer Time,745,Acre,2013-07-20,,201,United States of America,USA,Maidstone,MAIDSTONE,44.6486637,-71.6470329,WGS94,10,Event,VCE,
2013-TURTLEHEAD-1,Area Survey,Observer Time,69,Acre,2013-07-20,,201,United States of America,USA,Marshfield,TURTLEHEAD,44.3258919,-72.330657,WGS94,10,Event,VCE,
2013-MARTINS-1,Area Survey,Observer Time,82,Acre,2013-07-20,,201,United States of America,USA,Peacham,MARTINS,44.3,-72.22,WGS94,10,Event,VCE,
2013-MAY-1,Area Survey,Observer Time,116,Acre,2013-07-20,,201,United States of America,USA,Barton,MAY,44.7417164,-72.1228779,WGS94,10,Event,VCE,
2013-MCCONNELL-1,Area Survey,Observer Time,87,Acre,2013-07-20,,201,United States of America,USA,Brighton,MCCONNELL,44.8189378,-71.8039827,WGS94,10,Event,VCE,
2013-MEMPHREMAGOG-1,Area Survey,Observer Time,5966,Acre,2013-07-22,,203,United States of America,USA,Derby,MEMPHREMAGOG,44.9853239,-72.2151023,WGS94,10,Event,VCE,7/22 1st calm water since 7/20
2013-METCALF-1,Area Survey,Observer Time,81,Acre,2013-07-20,,201,United States of America,USA,Fletcher,METCALF,44.7283824,-72.8840236,WGS94,10,Event,VCE,
2013-MILES-1,Area Survey,Observer Time,215,Acre,2013-07-20,,201,United States of America,USA,Concord,MILES,44.45,-71.82,WGS94,10,Event,VCE,
2013-MILLER (STRFRD)-1,Area Survey,Observer Time,64,Acre,2013-07-20,,201,United States of America,USA,Strafford,MILLER (STRFRD),43.9,-72.3,WGS94,10,Event,VCE,chick?
2013-MOLLYS-1,Area Survey,Observer Time,38,Acre,2013-07-20,,201,United States of America,USA,Cabot,MOLLYS,44.3939461,-72.2359332,WGS94,10,Event,VCE,
2013-MOLLYS FALLS-1,Area Survey,Observer Time,397,Acre,2013-07-20,,201,United States of America,USA,Marshfield,MOLLYS FALLS,44.35,-72.28,WGS94,10,Event,VCE,"Rollin 2A 1C, rick scholes 5A 1ch"
2013-CEDAR-1,Area Survey,Observer Time,123,Acre,2013-07-19,,200,United States of America,USA,Monkton,CEDAR,44.2500546,-73.1328998,WGS94,10,Event,VCE,eric 7/19
2013-MOORE-1,Area Survey,Observer Time,1235,Acre,2013-07-20,,201,United States of America,USA,Waterford,MOORE,44.33,-71.87,WGS94,10,Event,VCE,
2013-MOREY-1,Area Survey,Observer Time,547,Acre,2013-07-20,,201,United States of America,USA,Fairlee,MOREY,43.9247901,-72.1498123,WGS94,10,Event,VCE,"3-7 usual, one day 9"
2013-MOSES-1,Area Survey,Observer Time,12,Acre,2013-07-20,,201,United States of America,USA,Weston,MOSES,43.33424,-72.8428774,WGS94,10,Event,VCE,
2013-MUD (HYDEPK)-1,Area Survey,Observer Time,14,Acre,2013-07-20,,201,United States of America,USA,Hyde Park,MUD (HYDEPK),44.605885,-72.5034444,WGS94,10,Event,VCE,Lauren obs
2013-MUD (LEICTR)-1,Area Survey,Observer Time,35,Acre,2013-07-20,,201,United States of America,USA,Leicester,MUD (LEICTR),43.88,-73.08,WGS94,10,Event,VCE,
2013-MUD (MORGAN)-N-1,Area Survey,Observer Time,35,Acre,2013-07-20,,201,United States of America,USA,Morgan,MUD (MORGAN)-N,44.9172696,-72.0448202,WGS94,10,Event,VCE,
2013-MUD (PEACHM)-1,Area Survey,Observer Time,34,Acre,2013-07-20,,201,United States of America,USA,Peacham,MUD (PEACHM),44.3072818,-72.2125974,WGS94,10,Event,VCE,
2013-NEAL-1,Area Survey,Observer Time,186,Acre,2013-07-20,,201,United States of America,USA,Lunenburg,NEAL,44.4897795,-71.6920327,WGS94,10,Event,VCE,
2013-FOREST (CALAIS)-1,Area Survey,Observer Time,133,Acre,2013-07-20,,201,United States of America,USA,Woodbury,FOREST (CALAIS),44.4083895,-72.4412182,WGS94,10,Event,VCE,
2013-NEWARK-1,Area Survey,Observer Time,153,Acre,2013-07-20,,201,United States of America,USA,Newark,NEWARK,44.7175509,-71.9823186,WGS94,10,Event,VCE,
2013-NICHOLS-1,Area Survey,Observer Time,171,Acre,2013-07-20,,201,United States of America,USA,Woodbury,NICHOLS,44.45,-72.35,WGS94,10,Event,VCE,
2013-MIRROR-1,Area Survey,Observer Time,85,Acre,2013-07-20,,201,United States of America,USA,Calais,MIRROR,44.4,-72.45,WGS94,10,Event,VCE,
2013-NORFORD-1,Area Survey,Observer Time,21,Acre,2013-07-20,,201,United States of America,USA,Thetford,NORFORD,43.8,-72.3,WGS94,10,Event,VCE,
2013-NORTH SPRINGFIELD-1,Area Survey,Observer Time,290,Acre,2013-07-20,,201,United States of America,USA,Springfield,NORTH SPRINGFIELD,43.35,-72.5,WGS94,10,Event,VCE,
2013-NORTON-1,Area Survey,Observer Time,583,Acre,2013-07-20,,201,United States of America,USA,Norton,NORTON,44.93,-71.87,WGS94,10,Event,VCE,1 ad south end incubating
2013-NOTCH-1,Area Survey,Observer Time,22,Acre,2013-07-20,,201,United States of America,USA,Ferdinand,NOTCH,44.7406056,-71.7173137,WGS94,10,Event,VCE,
2013-NOYES-1,Area Survey,Observer Time,39,Acre,2013-07-20,,201,United States of America,USA,Groton,NOYES,44.23,-72.32,WGS94,10,Event,VCE,
2013-NULHEGAN-1,Area Survey,Observer Time,37,Acre,2013-07-20,,201,United States of America,USA,Brighton,NULHEGAN,44.791716,-71.8178717,WGS94,10,Event,VCE,
2013-OSMORE-1,Area Survey,Observer Time,48,Acre,2013-07-20,,201,United States of America,USA,Groton,OSMORE,44.3083926,-72.2781547,WGS94,10,Event,VCE,
2013-PARKER-1,Area Survey,Observer Time,250,Acre,2013-07-20,,201,United States of America,USA,Glover,PARKER,44.7194941,-72.2328808,WGS94,10,Event,VCE,
2013-PEACHAM-1,Area Survey,Observer Time,340,Acre,2013-07-20,,201,United States of America,USA,Peacham,PEACHAM,44.33,-72.27,WGS94,10,Event,VCE,
2013-PENSIONER-1,Area Survey,Observer Time,173,Acre,2013-07-20,,201,United States of America,USA,Charleston,PENSIONER,44.8736591,-72.0573206,WGS94,10,Event,VCE,
2013-PLEIAD-1,Area Survey,Observer Time,6,Acre,2013-07-20,,201,United States of America,USA,Hancock,PLEIAD,43.9339521,-72.9578898,WGS94,10,Event,VCE,
2013-RAPONDA-1,Area Survey,Observer Time,121,Acre,2013-07-20,,201,United States of America,USA,Wilmington,RAPONDA,42.8750812,-72.8175965,WGS94,10,Event,VCE,no sightings for a month
2013-RESCUE-1,Area Survey,Observer Time,180,Acre,2013-07-20,,201,United States of America,USA,Ludlow,RESCUE,43.45,-72.7,WGS94,10,Event,VCE,
2013-RICKER-1,Area Survey,Observer Time,95,Acre,2013-07-20,,201,United States of America,USA,Groton,RICKER,44.2470054,-72.244541,WGS94,10,Event,VCE,chicks missing
2013-MUD (HOLLND)-1,Area Survey,Observer Time,14,Acre,2013-07-20,,201,United States of America,USA,Holland,MUD (HOLLND),44.9367139,-72.0281531,WGS94,10,Event,VCE,
2013-SADAWGA-1,Area Survey,Observer Time,194,Acre,2013-07-20,,201,United States of America,USA,Whitingham,SADAWGA,42.78036,-72.8762088,WGS94,10,Event,VCE,
2013-SEARSBURG-1,Area Survey,Observer Time,25,Acre,2013-07-20,,201,United States of America,USA,Searsburg,SEARSBURG,42.92,-72.93,WGS94,10,Event,VCE,
2013-SEYMOUR-1,Area Survey,Observer Time,1769,Acre,2013-07-20,,201,United States of America,USA,Morgan,SEYMOUR,44.8969923,-71.9817632,WGS94,10,Event,VCE,
2013-SHADOW (CONCRD)-1,Area Survey,Observer Time,128,Acre,2013-07-20,,201,United States of America,USA,Concord,SHADOW (CONCRD),44.4003367,-71.8734249,WGS94,10,Event,VCE,"2a 1 ch Kane-Rohloff, 1 ad loretta"
2013-SHADOW (GLOVER)-1,Area Survey,Observer Time,210,Acre,2013-07-20,,201,United States of America,USA,Glover,SHADOW (GLOVER),44.668103,-72.226571,WGS94,10,Event,VCE,
2013-SILVER (LEICTR)-1,Area Survey,Observer Time,101,Acre,2013-07-20,,201,United States of America,USA,Leicester,SILVER (LEICTR),43.88,-73.05,WGS94,10,Event,VCE,
2013-SODOM-1,Area Survey,Observer Time,21,Acre,2013-07-20,,201,United States of America,USA,Calais,SODOM,44.3256137,-72.4998296,WGS94,10,Event,VCE,
2013-SOMERSET-1,Area Survey,Observer Time,1568,Acre,2013-07-20,,201,United States of America,USA,Somerset,SOMERSET,43.009708,-72.952621,WGS94,10,Event,VCE,
2013-SOUTH (EDEN)-1,Area Survey,Observer Time,103,Acre,2013-07-20,,201,United States of America,USA,Eden,SOUTH (EDEN),44.68,-72.53,WGS94,10,Event,VCE,
2013-SOUTH (MARLBR)-1,Area Survey,Observer Time,68,Acre,2013-07-20,,201,United States of America,USA,Marlboro,SOUTH (MARLBR),42.8445262,-72.7128712,WGS94,10,Event,VCE,
2013-SOUTH AMERICA-1,Area Survey,Observer Time,29,Acre,2013-07-20,,201,United States of America,USA,Ferdinand,SOUTH AMERICA,44.7056067,-71.7431474,WGS94,10,Event,VCE,
2013-SOUTH BAY-1,Area Survey,Observer Time,470,Acre,2013-07-20,,201,United States of America,USA,Newport City,SOUTH BAY,44.93,-72.2,WGS94,10,Event,VCE,
2013-SPECTACLE-1,Area Survey,Observer Time,103,Acre,2013-07-20,,201,United States of America,USA,Brighton,SPECTACLE,44.8006048,-71.8503722,WGS94,10,Event,VCE,
2013-SPRING (SHRWBY)-1,Area Survey,Observer Time,66,Acre,2013-07-19,,200,United States of America,USA,Shrewsbury,SPRING (SHRWBY),43.4959033,-72.918992,WGS94,10,Event,VCE,7/19 eric
2013-ST. CATHERINE-1,Area Survey,Observer Time,883,Acre,2013-07-20,,201,United States of America,USA,Wells,ST. CATHERINE,43.47,-73.22,WGS94,10,Event,VCE,jean roberts
2013-STAR-1,Area Survey,Observer Time,63,Acre,2013-07-20,,201,United States of America,USA,Mount Holly,STAR,43.419516,-72.8162108,WGS94,10,Event,VCE,mid a.m.
2013-STILES-1,Area Survey,Observer Time,135,Acre,2013-07-20,,201,United States of America,USA,Waterford,STILES,44.42,-71.93,WGS94,10,Event,VCE,Lauren obs.; 0 kane-rohloff
2013-SUGAR HILL-1,Area Survey,Observer Time,63,Acre,2013-07-20,,201,United States of America,USA,Goshen,SUGAR HILL,43.92,-73,WGS94,10,Event,VCE,
2013-SUNSET (BENSON)-1,Area Survey,Observer Time,202,Acre,2013-07-20,,201,United States of America,USA,Benson,SUNSET (BENSON),43.7564513,-73.2709476,WGS94,10,Event,VCE,
2013-SUNSET (MARLBR)-1,Area Survey,Observer Time,96,Acre,2013-07-20,,201,United States of America,USA,Marlboro,SUNSET (MARLBR),42.92,-72.68,WGS94,10,Event,VCE,
2013-THURMAN W. DIX-1,Area Survey,Observer Time,123,Acre,2013-07-20,,201,United States of America,USA,Orange,THURMAN W. DIX,44.18,-72.42,WGS94,10,Event,VCE,
2013-TICKLENAKED-1,Area Survey,Observer Time,54,Acre,2013-07-20,,201,United States of America,USA,Ryegate,TICKLENAKED,44.1892294,-72.0987041,WGS94,10,Event,VCE,
2013-TOAD (CHARTN)-1,Area Survey,Observer Time,22,Acre,2013-07-20,,201,United States of America,USA,Charleston,TOAD (CHARTN),44.8489373,-72.0475981,WGS94,10,Event,VCE,chris owen
2013-UPPER SYMES-1,Area Survey,Observer Time,15,Acre,2013-07-20,,201,United States of America,USA,Ryegate,UPPER SYMES,44.25,-72.12,WGS94,10,Event,VCE,
2013-WALLACE-1,Area Survey,Observer Time,532,Acre,2013-07-20,,201,United States of America,USA,Canaan,WALLACE,45.0119905,-71.6256445,WGS94,10,Event,VCE,
2013-WALLINGFORD-1,Area Survey,Observer Time,87,Acre,2013-07-20,,201,United States of America,USA,Wallingford,WALLINGFORD,43.4145161,-72.9095466,WGS94,10,Event,VCE,windy
2013-WANTASTIQUET-1,Area Survey,Observer Time,44,Acre,2013-07-20,,201,United States of America,USA,Weston,WANTASTIQUET,43.3,-72.82,WGS94,10,Event,VCE,"bob tucker did survey, not marie haskins"
2013-TUTTLE (HARDWK)-1,Area Survey,Observer Time,21,Acre,2013-07-20,,201,United States of America,USA,Hardwick,TUTTLE (HARDWK),44.5581086,-72.310105,WGS94,10,Event,VCE,
2013-WARDEN-1,Area Survey,Observer Time,46,Acre,2013-07-20,,201,United States of America,USA,Barnet,WARDEN,44.3300597,-72.0781505,WGS94,10,Event,VCE,
2013-WATERBURY-1,Area Survey,Observer Time,839,Acre,2013-07-20,,201,United States of America,USA,Waterbury,WATERBURY,44.38,-72.77,WGS94,10,Event,VCE,east arm and south
2013-WEST HILL-1,Area Survey,Observer Time,46,Acre,2013-07-20,,201,United States of America,USA,Cabot,WEST HILL,44.4177364,-72.3429895,WGS94,10,Event,VCE,
2013-WEST MOUNTAIN-1,Area Survey,Observer Time,60,Acre,2013-07-20,,201,United States of America,USA,Maidstone,WEST MOUNTAIN,44.6892181,-71.6620338,WGS94,10,Event,VCE,
2013-WHEELER (BRUNWK)-1,Area Survey,Observer Time,66,Acre,2013-07-20,,201,United States of America,USA,Brunswick,WHEELER (BRUNWK),44.708384,-71.6395333,WGS94,10,Event,VCE,
2013-WILLOUGHBY-1,Area Survey,Observer Time,1653,Acre,2013-07-20,,201,United States of America,USA,Westmore,WILLOUGHBY,44.7519942,-72.0628763,WGS94,10,Event,VCE,10 Ad on Friday
2013-WOLCOTT-1,Area Survey,Observer Time,74,Acre,2013-07-20,,201,United States of America,USA,Wolcott,WOLCOTT,44.56532569,-72.42045722,WGS94,10,Event,VCE,
2013-WOODBURY-1,Area Survey,Observer Time,142,Acre,2013-07-20,,201,United States of America,USA,Woodbury,WOODBURY,44.43,-72.42,WGS94,10,Event,VCE,
2013-WOODWARD-1,Area Survey,Observer Time,106,Acre,2013-07-20,,201,United States of America,USA,Plymouth,WOODWARD,43.56577923,-72.75853066,WGS94,10,Event,VCE,1
2013-ZACK WOODS-1,Area Survey,Observer Time,23,Acre,2013-07-20,,201,United States of America,USA,Hyde Park,ZACK WOODS,44.6106072,-72.5012221,WGS94,10,Event,VCE,
2014-ABENAKI-1,Area Survey,Observer Time,44,Acre,2014-07-19,,200,United States of America,USA,Thetford,ABENAKI,43.8328472,-72.2345354,WGS94,10,Event,VCE,
2014-AMHERST-1,Area Survey,Observer Time,81,Acre,2014-07-19,,200,United States of America,USA,Plymouth,AMHERST,43.4856261,-72.7042639,WGS94,10,Event,VCE,
2014-BAKER (BARTON)-1,Area Survey,Observer Time,51,Acre,2014-07-19,,200,United States of America,USA,Barton,BAKER (BARTON),44.746438,-72.2348255,WGS94,10,Event,VCE,
2014-BALD HILL-1,Area Survey,Observer Time,108,Acre,2014-07-19,,200,United States of America,USA,Westmore,BALD HILL,44.7394947,-71.9778742,WGS94,10,Event,VCE,
2014-BEAN (SUTTON)-1,Area Survey,Observer Time,30,Acre,2014-07-19,,200,United States of America,USA,Sutton,BEAN (SUTTON),44.6983842,-72.0862101,WGS94,10,Event,VCE,
2014-BEAVER (HOLLND)-1,Area Survey,Observer Time,40,Acre,2014-07-19,,200,United States of America,USA,Holland,BEAVER (HOLLND),45.0047684,-71.9398184,WGS94,10,Event,VCE,
2014-BEEBE (HUBDTN)-1,Area Survey,Observer Time,111,Acre,2014-07-19,,200,United States of America,USA,Hubbardton,BEEBE (HUBDTN),43.7342306,-73.1831677,WGS94,10,Event,VCE,
2014-BEEBE (SUNDLD)-1,Area Survey,Observer Time,13,Acre,2014-07-19,,200,United States of America,USA,Sunderland,BEEBE (SUNDLD),43.0523,-73.0320481,WGS94,10,Event,VCE,0 by Thompson
2014-BLISS-1,Area Survey,Observer Time,46,Acre,2014-07-19,,200,United States of America,USA,Calais,BLISS,44.3525574,-72.5006635,WGS94,10,Event,VCE,
2014-BOMOSEEN-1,Area Survey,Observer Time,2360,Acre,2014-07-19,,200,United States of America,USA,Castleton,BOMOSEEN,43.6442324,-73.2131665,WGS94,10,Event,VCE,
2014-BOURN-1,Area Survey,Observer Time,48,Acre,2014-07-19,,200,United States of America,USA,Sunderland,BOURN,43.1061882,-73.0020474,WGS94,10,Event,VCE,
2014-BRANCH-1,Area Survey,Observer Time,34,Acre,2014-07-19,,200,United States of America,USA,Sunderland,BRANCH,43.0809107,-73.0189922,WGS94,10,Event,VCE,
2014-BROWNINGTON-1,Area Survey,Observer Time,139,Acre,2014-07-19,,200,United States of America,USA,Brownington,BROWNINGTON,44.8786588,-72.1476007,WGS94,10,Event,VCE,
2014-BRUCE-1,Area Survey,Observer Time,27,Acre,2014-07-19,,200,United States of America,USA,Sutton,BRUCE,44.6403295,-72.187046,WGS94,10,Event,VCE,
2014-BUCK-1,Area Survey,Observer Time,39,Acre,2014-07-19,,200,United States of America,USA,Woodbury,BUCK,44.462555,-72.3995513,WGS94,10,Event,VCE,
2014-BURR (SUDBRY)-1,Area Survey,Observer Time,85,Acre,2014-07-19,,200,United States of America,USA,Sudbury,BURR (SUDBRY),43.77,-73.18,WGS94,10,Event,VCE,
2014-CASPIAN-1,Area Survey,Observer Time,789,Acre,2014-07-19,,200,United States of America,USA,Greensboro,CASPIAN,44.58,-72.32,WGS94,10,Event,VCE,
2014-CENTER-1,Area Survey,Observer Time,79,Acre,2014-07-19,,200,United States of America,USA,Newark,CENTER,44.7144953,-71.9198175,WGS94,10,Event,VCE,
2014-CHANDLER (WHLOCK)-1,Area Survey,Observer Time,68,Acre,2014-07-19,,200,United States of America,USA,Wheelock,CHANDLER (WHLOCK),44.53,-72.1,WGS94,10,Event,VCE,
2014-CHIPMAN-1,Area Survey,Observer Time,79,Acre,2014-07-19,,200,United States of America,USA,Tinmouth,CHIPMAN,43.408405,-73.0301051,WGS94,10,Event,VCE,
2014-CHITTENDEN-1,Area Survey,Observer Time,702,Acre,2014-07-19,,200,United States of America,USA,Chittenden,CHITTENDEN,43.73,-72.92,WGS94,10,Event,VCE,
2014-TILDYS-1,Area Survey,Observer Time,33,Acre,2014-07-19,,200,United States of America,USA,Glover,TILDYS,44.65,-72.2,WGS94,10,Event,VCE,
2014-COITS-1,Area Survey,Observer Time,40,Acre,2014-07-19,,200,United States of America,USA,Cabot,COITS,44.4472777,-72.3295486,WGS94,10,Event,VCE,
2014-COLBY-1,Area Survey,Observer Time,20,Acre,2014-07-19,,200,United States of America,USA,Plymouth,COLBY,43.47,-72.67,WGS94,10,Event,VCE,
2014-COLCHESTER-1,Area Survey,Observer Time,186,Acre,2014-07-19,,200,United States of America,USA,Colchester,COLCHESTER,44.5550488,-73.1195741,WGS94,10,Event,VCE,
2014-COLE-1,Area Survey,Observer Time,41,Acre,2014-07-19,,200,United States of America,USA,Jamaica,COLE,43.1470213,-72.8056529,WGS94,10,Event,VCE,
2014-COLES-1,Area Survey,Observer Time,125,Acre,2014-07-19,,200,United States of America,USA,Walden,COLES,44.52,-72.22,WGS94,10,Event,VCE,
2014-COLLINS-1,Area Survey,Observer Time,16,Acre,2014-07-19,,200,United States of America,USA,Hyde Park,COLLINS,44.6214402,-72.5042778,WGS94,10,Event,VCE,
2014-COMERFORD-1,Area Survey,Observer Time,777,Acre,2014-07-19,,200,United States of America,USA,Waterford,COMERFORD,44.33,-72.02,WGS94,10,Event,VCE,
2014-CRANBERRY MEADOW-1,Area Survey,Observer Time,28,Acre,2014-07-19,,200,United States of America,USA,Woodbury,CRANBERRY MEADOW,44.4208892,-72.4573301,WGS94,10,Event,VCE,
2014-CRYSTAL (BARTON)-1,Area Survey,Observer Time,763,Acre,2014-07-19,,200,United States of America,USA,Barton,CRYSTAL (BARTON),44.7467161,-72.1762128,WGS94,10,Event,VCE,
2014-CURTIS-1,Area Survey,Observer Time,72,Acre,2014-07-19,,200,United States of America,USA,Calais,CURTIS,44.38,-72.5,WGS94,10,Event,VCE,
2014-DANBY-1,Area Survey,Observer Time,56,Acre,2014-07-19,,200,United States of America,USA,Danby,DANBY,43.3650727,-73.0506606,WGS94,10,Event,VCE,
2014-DANIELS-1,Area Survey,Observer Time,66,Acre,2014-07-19,,200,United States of America,USA,Glover,DANIELS,44.6767173,-72.2626038,WGS94,10,Event,VCE,
2014-DERBY-1,Area Survey,Observer Time,207,Acre,2014-07-19,,200,United States of America,USA,Derby,DERBY,44.9542134,-72.1162109,WGS94,10,Event,VCE,
2014-DEWEYS MILL-1,Area Survey,Observer Time,56,Acre,2014-07-19,,200,United States of America,USA,Hartford,DEWEYS MILL,43.65,-72.4,WGS94,10,Event,VCE,
2014-VALLEY-1,Area Survey,Observer Time,88,Acre,2014-07-19,,200,United States of America,USA,Woodbury,VALLEY,44.447,-72.441,WGS94,10,Event,VCE,
2014-DUNMORE-1,Area Survey,Observer Time,985,Acre,2014-07-19,,200,United States of America,USA,Salisbury,DUNMORE,43.9020068,-73.0753915,WGS94,10,Event,VCE,
2014-EAST LONG-1,Area Survey,Observer Time,188,Acre,2014-07-19,,200,United States of America,USA,Woodbury,EAST LONG,44.45,-72.35,WGS94,10,Event,VCE,
2014-ECHO (CHARTN)-1,Area Survey,Observer Time,550,Acre,2014-07-19,,200,United States of America,USA,Charleston,ECHO (CHARTN),44.8603262,-71.994819,WGS94,10,Event,VCE,
2014-ECHO (HUBDTN)-1,Area Survey,Observer Time,54,Acre,2014-07-19,,200,United States of America,USA,Hubbardton,ECHO (HUBDTN),43.7458969,-73.1828902,WGS94,10,Event,VCE,
2014-ECHO (PLYMTH)-1,Area Survey,Observer Time,104,Acre,2014-07-19,,200,United States of America,USA,Plymouth,ECHO (PLYMTH),43.4734041,-72.6998192,WGS94,10,Event,VCE,
2014-EDEN-1,Area Survey,Observer Time,194,Acre,2014-07-19,,200,United States of America,USA,Eden,EDEN,44.7225493,-72.5017778,WGS94,10,Event,VCE,
2014-ELLIGO-1,Area Survey,Observer Time,174,Acre,2014-07-19,,200,United States of America,USA,Greensboro,ELLIGO,44.600052,-72.3551065,WGS94,10,Event,VCE,
2014-ELMORE-1,Area Survey,Observer Time,219,Acre,2014-07-19,,200,United States of America,USA,Elmore,ELMORE,44.5347752,-72.5253897,WGS94,10,Event,VCE,"Angela checked again for chick 8/9, no chick"
2014-EMERALD-1,Area Survey,Observer Time,28,Acre,2014-07-19,,200,United States of America,USA,Dorset,EMERALD,43.2753523,-73.0064924,WGS94,10,Event,VCE,
2014-EWELL-1,Area Survey,Observer Time,51,Acre,2014-07-19,,200,United States of America,USA,Peacham,EWELL,44.37,-72.17,WGS94,10,Event,VCE,
2014-FAIRFIELD-1,Area Survey,Observer Time,446,Acre,2014-07-19,,200,United States of America,USA,Fairfield,FAIRFIELD,44.85,-72.98,WGS94,10,Event,VCE,
2014-FAIRLEE-1,Area Survey,Observer Time,457,Acre,2014-07-19,,200,United States of America,USA,Fairlee,FAIRLEE,43.88,-72.23,WGS94,10,Event,VCE,
2014-FERN-1,Area Survey,Observer Time,69,Acre,2014-07-19,,200,United States of America,USA,Leicester,FERN,43.8656187,-73.0698352,WGS94,10,Event,VCE,
2014-FLAGG-1,Area Survey,Observer Time,111,Acre,2014-07-19,,200,United States of America,USA,Wheelock,FLAGG,44.5653311,-72.2073241,WGS94,10,Event,VCE,
2014-FOREST (AVERLL)-1,Area Survey,Observer Time,62,Acre,2014-07-19,,200,United States of America,USA,Averill,FOREST (AVERLL),44.9847686,-71.6814803,WGS94,10,Event,VCE,
2014-FOSTERS-1,Area Survey,Observer Time,61,Acre,2014-07-19,,200,United States of America,USA,Peacham,FOSTERS,44.3297812,-72.20982,WGS94,10,Event,VCE,
2014-GALE MEADOWS-1,Area Survey,Observer Time,195,Acre,2014-07-19,,200,United States of America,USA,Londonderry,GALE MEADOWS,43.17,-72.87,WGS94,10,Event,VCE,
2014-GLEN-1,Area Survey,Observer Time,206,Acre,2014-07-19,,200,United States of America,USA,Fair Haven,GLEN,43.67,-73.23,WGS94,10,Event,VCE,missed
2014-GREAT AVERILL-1,Area Survey,Observer Time,828,Acre,2014-07-19,,200,United States of America,USA,Averill,GREAT AVERILL,44.98,-71.7,WGS94,10,Event,VCE,
2014-GREAT HOSMER-1,Area Survey,Observer Time,140,Acre,2014-07-19,,200,United States of America,USA,Craftsbury,GREAT HOSMER,44.6947722,-72.3606624,WGS94,10,Event,VCE,
2014-GREEN RIVER-1,Area Survey,Observer Time,554,Acre,2014-07-19,,200,United States of America,USA,Hyde Park,GREEN RIVER,44.629268,-72.515443,WGS94,10,Event,VCE,
2014-GREENWOOD-1,Area Survey,Observer Time,96,Acre,2014-07-19,,200,United States of America,USA,Woodbury,GREENWOOD,44.4586661,-72.4253853,WGS94,10,Event,VCE,
2014-GROTON-1,Area Survey,Observer Time,422,Acre,2014-07-19,,200,United States of America,USA,Groton,GROTON,44.2667271,-72.2662089,WGS94,10,Event,VCE,
2014-HALLS-1,Area Survey,Observer Time,85,Acre,2014-07-19,,200,United States of America,USA,Newbury,HALLS,44.085898,-72.1231473,WGS94,10,Event,VCE,
2014-HARDWICK-1,Area Survey,Observer Time,145,Acre,2014-07-19,,200,United States of America,USA,Hardwick,HARDWICK,44.52,-72.37,WGS94,10,Event,VCE,
2014-HARDWOOD-1,Area Survey,Observer Time,44,Acre,2014-07-19,,200,United States of America,USA,Elmore,HARDWOOD,44.4678324,-72.4995546,WGS94,10,Event,VCE,missed
2014-NORTH HARTLAND-1,Area Survey,Observer Time,215,Acre,2014-07-19,,200,United States of America,USA,Hartland,NORTH HARTLAND,43.62,-72.37,WGS94,10,Event,VCE,
2014-HARVEYS-1,Area Survey,Observer Time,351,Acre,2014-07-19,,200,United States of America,USA,Barnet,HARVEYS,44.3,-72.13,WGS94,10,Event,VCE,
2014-HOLLAND-1,Area Survey,Observer Time,325,Acre,2014-07-19,,200,United States of America,USA,Holland,HOLLAND,44.9867132,-71.9281516,WGS94,10,Event,VCE,
2014-HORTONIA-1,Area Survey,Observer Time,479,Acre,2014-07-19,,200,United States of America,USA,Hubbardton,HORTONIA,43.7500632,-73.2078906,WGS94,10,Event,VCE,check location
2014-HOWE-1,Area Survey,Observer Time,52,Acre,2014-07-19,,200,United States of America,USA,Readsboro,HOWE,42.7842485,-72.9859342,WGS94,10,Event,VCE,
2014-INDIAN BROOK (ESSEX)-1,Area Survey,Observer Time,50,Acre,2014-07-19,,200,United States of America,USA,Essex,INDIAN BROOK (ESSEX),44.53,-73.1,WGS94,10,Event,VCE,
2014-IROQUOIS-1,Area Survey,Observer Time,243,Acre,2014-07-19,,200,United States of America,USA,Hinesburg,IROQUOIS,44.37,-73.08,WGS94,10,Event,VCE,ebird
2014-ISLAND-1,Area Survey,Observer Time,626,Acre,2014-07-19,,200,United States of America,USA,Brighton,ISLAND,44.8050491,-71.8706504,WGS94,10,Event,VCE,
2014-JOBS-1,Area Survey,Observer Time,39,Acre,2014-07-19,,200,United States of America,USA,Westmore,JOBS,44.7628276,-71.9537072,WGS94,10,Event,VCE,
2014-JOES (DANVLL)-1,Area Survey,Observer Time,396,Acre,2014-07-19,,200,United States of America,USA,Danville,JOES (DANVLL),44.4083904,-72.1945436,WGS94,10,Event,VCE,
2014-KENT-1,Area Survey,Observer Time,99,Acre,2014-07-19,,200,United States of America,USA,Killington,KENT,43.68,-72.8,WGS94,10,Event,VCE,
2014-KETTLE-1,Area Survey,Observer Time,109,Acre,2014-07-19,,200,United States of America,USA,Peacham,KETTLE,44.2947817,-72.3181558,WGS94,10,Event,VCE,
2014-KNAPP BROOK #1-1,Area Survey,Observer Time,25,Acre,2014-07-18,,199,United States of America,USA,Cavendish,KNAPP BROOK #1,43.447016,-72.5662041,WGS94,10,Event,VCE,5 pm Friday
2014-KNAPP BROOK #2-1,Area Survey,Observer Time,35,Acre,2014-07-19,,200,United States of America,USA,Cavendish,KNAPP BROOK #2,43.45,-72.57,WGS94,10,Event,VCE,
2014-LEVI-1,Area Survey,Observer Time,22,Acre,2014-07-19,,200,United States of America,USA,Groton,LEVI,44.2672827,-72.2262078,WGS94,10,Event,VCE,
2014-LEWIS-1,Area Survey,Observer Time,68,Acre,2014-07-19,,200,United States of America,USA,Lewis,LEWIS,44.8833812,-71.7806495,WGS94,10,Event,VCE,
2014-LITTLE AVERILL-1,Area Survey,Observer Time,467,Acre,2014-07-19,,200,United States of America,USA,Averill,LITTLE AVERILL,44.9556024,-71.7162039,WGS94,10,Event,VCE,
2014-LITTLE ELMORE-1,Area Survey,Observer Time,24,Acre,2014-07-19,,200,United States of America,USA,Elmore,LITTLE ELMORE,44.4978315,-72.5317787,WGS94,10,Event,VCE,
2014-LITTLE HOSMER-1,Area Survey,Observer Time,180,Acre,2014-07-19,,200,United States of America,USA,Craftsbury,LITTLE HOSMER,44.68,-72.38,WGS94,10,Event,VCE,
2014-SALEM-1,Area Survey,Observer Time,50,Acre,2014-07-19,,200,United States of America,USA,Derby,SALEM,44.9292138,-72.1037106,WGS94,10,Event,VCE,
2014-LONG (EDEN)-1,Area Survey,Observer Time,97,Acre,2014-07-19,,200,United States of America,USA,Eden,LONG (EDEN),44.77,-72.6,WGS94,10,Event,VCE,
2014-LONG (GRNSBO)-1,Area Survey,Observer Time,100,Acre,2014-07-19,,200,United States of America,USA,Greensboro,LONG (GRNSBO),44.6256073,-72.263437,WGS94,10,Event,VCE,
2014-LONG (SHEFLD)-1,Area Survey,Observer Time,38,Acre,2014-07-19,,200,United States of America,USA,Sheffield,LONG (SHEFLD),44.6767178,-72.1437116,WGS94,10,Event,VCE,
2014-LONG (WESTMR)-1,Area Survey,Observer Time,90,Acre,2014-07-19,,200,United States of America,USA,Westmore,LONG (WESTMR),44.7506056,-72.0178751,WGS94,10,Event,VCE,
2014-LOWELL-1,Area Survey,Observer Time,57,Acre,2014-07-19,,200,United States of America,USA,Londonderry,LOWELL,43.22,-72.77,WGS94,10,Event,VCE,
2014-LOWER SYMES-1,Area Survey,Observer Time,77,Acre,2014-07-19,,200,United States of America,USA,Ryegate,LOWER SYMES,44.25,-72.1,WGS94,10,Event,VCE,
2014-LYFORD-1,Area Survey,Observer Time,33,Acre,2014-07-19,,200,United States of America,USA,Walden,LYFORD,44.4456114,-72.2467681,WGS94,10,Event,VCE,
2014-MAIDSTONE-1,Area Survey,Observer Time,745,Acre,2014-07-19,,200,United States of America,USA,Maidstone,MAIDSTONE,44.6486637,-71.6470329,WGS94,10,Event,VCE,
2014-TURTLEHEAD-1,Area Survey,Observer Time,69,Acre,2014-07-19,,200,United States of America,USA,Marshfield,TURTLEHEAD,44.3258919,-72.330657,WGS94,10,Event,VCE,
2014-MARTINS-1,Area Survey,Observer Time,82,Acre,2014-07-19,,200,United States of America,USA,Peacham,MARTINS,44.3,-72.22,WGS94,10,Event,VCE,
2014-MAY-1,Area Survey,Observer Time,116,Acre,2014-07-19,,200,United States of America,USA,Barton,MAY,44.7417164,-72.1228779,WGS94,10,Event,VCE,
2014-MCCONNELL-1,Area Survey,Observer Time,87,Acre,2014-07-19,,200,United States of America,USA,Brighton,MCCONNELL,44.8189378,-71.8039827,WGS94,10,Event,VCE,
2014-MEMPHREMAGOG-1,Area Survey,Observer Time,5966,Acre,2014-07-19,,200,United States of America,USA,Derby,MEMPHREMAGOG,44.9853239,-72.2151023,WGS94,10,Event,VCE,
2014-METCALF-1,Area Survey,Observer Time,81,Acre,2014-07-19,,200,United States of America,USA,Fletcher,METCALF,44.7283824,-72.8840236,WGS94,10,Event,VCE,
2014-MILES-1,Area Survey,Observer Time,215,Acre,2014-07-19,,200,United States of America,USA,Concord,MILES,44.45,-71.82,WGS94,10,Event,VCE,
2014-MILLER (STRFRD)-1,Area Survey,Observer Time,64,Acre,2014-07-19,,200,United States of America,USA,Strafford,MILLER (STRFRD),43.9,-72.3,WGS94,10,Event,VCE,
2014-MOLLYS FALLS-1,Area Survey,Observer Time,397,Acre,2014-07-19,,200,United States of America,USA,Marshfield,MOLLYS FALLS,44.35,-72.28,WGS94,10,Event,VCE,
2014-CEDAR-1,Area Survey,Observer Time,123,Acre,2014-07-19,,200,United States of America,USA,Monkton,CEDAR,44.2500546,-73.1328998,WGS94,10,Event,VCE,
2014-MOORE-1,Area Survey,Observer Time,1235,Acre,2014-07-19,,200,United States of America,USA,Waterford,MOORE,44.33,-71.87,WGS94,10,Event,VCE,
2014-MOREY-1,Area Survey,Observer Time,547,Acre,2014-07-19,,200,United States of America,USA,Fairlee,MOREY,43.9247901,-72.1498123,WGS94,10,Event,VCE,"1 by Kellie, 2 by Angela"
2014-MOSES-1,Area Survey,Observer Time,12,Acre,2014-07-19,,200,United States of America,USA,Weston,MOSES,43.33424,-72.8428774,WGS94,10,Event,VCE,3-4 adults missing from the area - NH?
2014-MUD (HYDEPK)-1,Area Survey,Observer Time,14,Acre,2014-07-19,,200,United States of America,USA,Hyde Park,MUD (HYDEPK),44.605885,-72.5034444,WGS94,10,Event,VCE,
2014-MUD (PEACHM)-1,Area Survey,Observer Time,34,Acre,2014-07-19,,200,United States of America,USA,Peacham,MUD (PEACHM),44.3072818,-72.2125974,WGS94,10,Event,VCE,
2014-FOREST (CALAIS)-1,Area Survey,Observer Time,133,Acre,2014-07-19,,200,United States of America,USA,Woodbury,FOREST (CALAIS),44.4083895,-72.4412182,WGS94,10,Event,VCE,
2014-NEWARK-1,Area Survey,Observer Time,153,Acre,2014-07-19,,200,United States of America,USA,Newark,NEWARK,44.7175509,-71.9823186,WGS94,10,Event,VCE,
2014-NINEVAH-1,Area Survey,Observer Time,171,Acre,2014-07-19,,200,United States of America,USA,Mt. Holly,NINEVAH,43.47,-72.75,WGS94,10,Event,VCE,
2014-NORTON-1,Area Survey,Observer Time,583,Acre,2014-07-19,,200,United States of America,USA,Norton,NORTON,44.93,-71.87,WGS94,10,Event,VCE,
2014-NOTCH-1,Area Survey,Observer Time,22,Acre,2014-07-19,,200,United States of America,USA,Ferdinand,NOTCH,44.7406056,-71.7173137,WGS94,10,Event,VCE,
2014-NOYES-1,Area Survey,Observer Time,39,Acre,2014-07-19,,200,United States of America,USA,Groton,NOYES,44.23,-72.32,WGS94,10,Event,VCE,
2014-NULHEGAN-1,Area Survey,Observer Time,37,Acre,2014-07-19,,200,United States of America,USA,Brighton,NULHEGAN,44.791716,-71.8178717,WGS94,10,Event,VCE,
2014-OSMORE-1,Area Survey,Observer Time,48,Acre,2014-07-19,,200,United States of America,USA,Groton,OSMORE,44.3083926,-72.2781547,WGS94,10,Event,VCE,
2014-PARKER-1,Area Survey,Observer Time,250,Acre,2014-07-19,,200,United States of America,USA,Glover,PARKER,44.7194941,-72.2328808,WGS94,10,Event,VCE,missed
2014-PEACHAM-1,Area Survey,Observer Time,340,Acre,2014-07-19,,200,United States of America,USA,Peacham,PEACHAM,44.33,-72.27,WGS94,10,Event,VCE,
2014-PENSIONER-1,Area Survey,Observer Time,173,Acre,2014-07-19,,200,United States of America,USA,Charleston,PENSIONER,44.8736591,-72.0573206,WGS94,10,Event,VCE,
2014-PIGEON-1,Area Survey,Observer Time,69,Acre,2014-07-19,,200,United States of America,USA,Groton,PIGEON,44.245894,-72.3284329,WGS94,10,Event,VCE,
2014-PINNEO-1,Area Survey,Observer Time,50,Acre,2014-07-19,,200,United States of America,USA,Hartford,PINNEO,43.65,-72.43,WGS94,10,Event,VCE,
2014-PLEIAD-1,Area Survey,Observer Time,6,Acre,2014-07-19,,200,United States of America,USA,Hancock,PLEIAD,43.9339521,-72.9578898,WGS94,10,Event,VCE,
2014-RAPONDA-1,Area Survey,Observer Time,121,Acre,2014-07-19,,200,United States of America,USA,Wilmington,RAPONDA,42.8750812,-72.8175965,WGS94,10,Event,VCE,
2014-RICKER-1,Area Survey,Observer Time,95,Acre,2014-07-19,,200,United States of America,USA,Groton,RICKER,44.2470054,-72.244541,WGS94,10,Event,VCE,
2014-ROOD-1,Area Survey,Observer Time,23,Acre,2014-07-19,,200,United States of America,USA,Williamstown,ROOD,44.0770076,-72.5889944,WGS94,10,Event,VCE,
2014-MUD (HOLLND)-1,Area Survey,Observer Time,14,Acre,2014-07-19,,200,United States of America,USA,Holland,MUD (HOLLND),44.9367139,-72.0281531,WGS94,10,Event,VCE,
2014-SALEM-1,Area Survey,Observer Time,764,Acre,2014-07-19,,200,United States of America,USA,Derby,SALEM,44.9292138,-72.1037106,WGS94,10,Event,VCE,
2014-SEARSBURG-1,Area Survey,Observer Time,25,Acre,2014-07-19,,200,United States of America,USA,Searsburg,SEARSBURG,42.92,-72.93,WGS94,10,Event,VCE,
2014-SEYMOUR-1,Area Survey,Observer Time,1769,Acre,2014-07-19,,200,United States of America,USA,Morgan,SEYMOUR,44.8969923,-71.9817632,WGS94,10,Event,VCE,
2014-SHADOW (CONCRD)-1,Area Survey,Observer Time,128,Acre,2014-07-19,,200,United States of America,USA,Concord,SHADOW (CONCRD),44.4003367,-71.8734249,WGS94,10,Event,VCE,
2014-SHADOW (GLOVER)-1,Area Survey,Observer Time,210,Acre,2014-07-19,,200,United States of America,USA,Glover,SHADOW (GLOVER),44.668103,-72.226571,WGS94,10,Event,VCE,
2014-SILVER (LEICTR)-1,Area Survey,Observer Time,101,Acre,2014-07-19,,200,United States of America,USA,Leicester,SILVER (LEICTR),43.88,-73.05,WGS94,10,Event,VCE,
2014-SOMERSET-1,Area Survey,Observer Time,1568,Acre,2014-07-19,,200,United States of America,USA,Somerset,SOMERSET,43.009708,-72.952621,WGS94,10,Event,VCE,
2014-SOUTH (EDEN)-1,Area Survey,Observer Time,103,Acre,2014-07-19,,200,United States of America,USA,Eden,SOUTH (EDEN),44.68,-72.53,WGS94,10,Event,VCE,
2014-SOUTH (MARLBR)-1,Area Survey,Observer Time,68,Acre,2014-07-19,,200,United States of America,USA,Marlboro,SOUTH (MARLBR),42.8445262,-72.7128712,WGS94,10,Event,VCE,
2014-SOUTH BAY-1,Area Survey,Observer Time,470,Acre,2014-07-19,,200,United States of America,USA,Newport City,SOUTH BAY,44.93,-72.2,WGS94,10,Event,VCE,
2014-SPECTACLE-1,Area Survey,Observer Time,103,Acre,2014-07-19,,200,United States of America,USA,Brighton,SPECTACLE,44.8006048,-71.8503722,WGS94,10,Event,VCE,
2014-SPRING (SHRWBY)-1,Area Survey,Observer Time,66,Acre,2014-07-19,,200,United States of America,USA,Shrewsbury,SPRING (SHRWBY),43.4959033,-72.918992,WGS94,10,Event,VCE,
2014-ST. CATHERINE-1,Area Survey,Observer Time,883,Acre,2014-07-19,,200,United States of America,USA,Wells,ST. CATHERINE,43.47,-73.22,WGS94,10,Event,VCE,
2014-STAR-1,Area Survey,Observer Time,63,Acre,2014-07-19,,200,United States of America,USA,Mount Holly,STAR,43.419516,-72.8162108,WGS94,10,Event,VCE,ebird
2014-SUGAR HILL-1,Area Survey,Observer Time,63,Acre,2014-07-19,,200,United States of America,USA,Goshen,SUGAR HILL,43.92,-73,WGS94,10,Event,VCE,
2014-SUNRISE-1,Area Survey,Observer Time,57,Acre,2014-07-19,,200,United States of America,USA,Benson,SUNRISE,43.77,-73.27,WGS94,10,Event,VCE,
2014-SUNSET (BENSON)-1,Area Survey,Observer Time,202,Acre,2014-07-19,,200,United States of America,USA,Benson,SUNSET (BENSON),43.7564513,-73.2709476,WGS94,10,Event,VCE,
2014-SUNSET (MARLBR)-1,Area Survey,Observer Time,96,Acre,2014-07-19,,200,United States of America,USA,Marlboro,SUNSET (MARLBR),42.92,-72.68,WGS94,10,Event,VCE,
2014-THURMAN W. DIX-1,Area Survey,Observer Time,123,Acre,2014-07-19,,200,United States of America,USA,Orange,THURMAN W. DIX,44.18,-72.42,WGS94,10,Event,VCE,
2014-TICKLENAKED-1,Area Survey,Observer Time,54,Acre,2014-07-19,,200,United States of America,USA,Ryegate,TICKLENAKED,44.1892294,-72.0987041,WGS94,10,Event,VCE,
2014-TOAD (CHARTN)-1,Area Survey,Observer Time,22,Acre,2014-07-19,,200,United States of America,USA,Charleston,TOAD (CHARTN),44.8489373,-72.0475981,WGS94,10,Event,VCE,
2014-TURTLE-1,Area Survey,Observer Time,27,Acre,2014-07-19,,200,United States of America,USA,Holland,TURTLE,44.9933797,-71.9198182,WGS94,10,Event,VCE,
2014-WALLACE-1,Area Survey,Observer Time,532,Acre,2014-07-19,,200,United States of America,USA,Canaan,WALLACE,45.0119905,-71.6256445,WGS94,10,Event,VCE,
2014-WALLINGFORD-1,Area Survey,Observer Time,87,Acre,2014-07-19,,200,United States of America,USA,Wallingford,WALLINGFORD,43.4145161,-72.9095466,WGS94,10,Event,VCE,
2014-WANTASTIQUET-1,Area Survey,Observer Time,44,Acre,2014-07-19,,200,United States of America,USA,Weston,WANTASTIQUET,43.3,-72.82,WGS94,10,Event,VCE,
2014-TUTTLE (HARDWK)-1,Area Survey,Observer Time,21,Acre,2014-07-19,,200,United States of America,USA,Hardwick,TUTTLE (HARDWK),44.5581086,-72.310105,WGS94,10,Event,VCE,missed
2014-WARDEN-1,Area Survey,Observer Time,46,Acre,2014-07-19,,200,United States of America,USA,Barnet,WARDEN,44.3300597,-72.0781505,WGS94,10,Event,VCE,
2014-WATERBURY-1,Area Survey,Observer Time,839,Acre,2014-07-19,,200,United States of America,USA,Waterbury,WATERBURY,44.38,-72.77,WGS94,10,Event,VCE,
2014-WEST HILL-1,Area Survey,Observer Time,46,Acre,2014-07-19,,200,United States of America,USA,Cabot,WEST HILL,44.4177364,-72.3429895,WGS94,10,Event,VCE,
2014-WEST MOUNTAIN-1,Area Survey,Observer Time,60,Acre,2014-07-19,,200,United States of America,USA,Maidstone,WEST MOUNTAIN,44.6892181,-71.6620338,WGS94,10,Event,VCE,
2014-WHEELER (BRUNWK)-1,Area Survey,Observer Time,66,Acre,2014-07-19,,200,United States of America,USA,Brunswick,WHEELER (BRUNWK),44.708384,-71.6395333,WGS94,10,Event,VCE,
2014-WILLOUGHBY-1,Area Survey,Observer Time,1653,Acre,2014-07-19,,200,United States of America,USA,Westmore,WILLOUGHBY,44.7519942,-72.0628763,WGS94,10,Event,VCE,
2014-WOLCOTT-1,Area Survey,Observer Time,74,Acre,2014-07-19,,200,United States of America,USA,Wolcott,WOLCOTT,44.56532569,-72.42045722,WGS94,10,Event,VCE,
2014-WOODBURY-1,Area Survey,Observer Time,142,Acre,2014-07-19,,200,United States of America,USA,Woodbury,WOODBURY,44.43,-72.42,WGS94,10,Event,VCE,
2014-WOODWARD-1,Area Survey,Observer Time,106,Acre,2014-07-19,,200,United States of America,USA,Plymouth,WOODWARD,43.56577923,-72.75853066,WGS94,10,Event,VCE,
2014-WRIGHTSVILLE-1,Area Survey,Observer Time,190,Acre,2014-07-19,,200,United States of America,USA,East Montpelier,WRIGHTSVILLE,44.32345335,-72.57340942,WGS94,10,Event,VCE,
